{
"type": "FeatureCollection",
"name": "horo",
"crs": { "type": "name", "properties": { "name": "urn:ogc:def:crs:EPSG::3857" } },
"features": [
{ "type": "Feature", "properties": { "numhoro": "60430102", "adresse": "0 AVENUE DU MARECHAL FRANCHET D ESPEREY", "arrondt": 16, "regime": "MIXTE", "acces_pmr": "Oui", "tarif": "2 10U 50 MIX sept22", "zoneres": "16R", "paiement": "CB + CB sans contact", "geo_point_2d": { "lon": 2.2632249993905615, "lat": 48.857326000341786 }, "tarifhor_voiture": 4.0, "tarifhor_2r": 2.0, "lon": 2.2632249993905615, "lat": 48.857326000341786, "value": 97 }, "geometry": { "type": "Point", "coordinates": [ 251941.054482764215209, 6250687.184230921790004 ] } },
{ "type": "Feature", "properties": { "numhoro": "74620201", "adresse": "0 AVENUE PIERRE MASSE", "arrondt": 14, "regime": "MIXTE", "acces_pmr": "Oui", "tarif": "2 10U 50 MIX sept22", "zoneres": "14G", "paiement": "CB + CB sans contact", "geo_point_2d": { "lon": 2.3330110005757061, "lat": 48.817999000288829 }, "tarifhor_voiture": 4.0, "tarifhor_2r": 2.0, "lon": 2.3330110005757061, "lat": 48.817999000288829, "value": 6 }, "geometry": { "type": "Point", "coordinates": [ 259709.596599193289876, 6244035.867021711543202 ] } },
{ "type": "Feature", "properties": { "numhoro": "31160207", "adresse": "0 BOULEVARD EDGAR QUINET", "arrondt": 14, "regime": "MIXTE", "acces_pmr": "Oui", "tarif": "2 10U 50 MIX sept22", "zoneres": "14N", "paiement": "CB + CB sans contact", "geo_point_2d": { "lon": 2.3282479996584429, "lat": 48.839814999675859 }, "tarifhor_voiture": 4.0, "tarifhor_2r": 2.0, "lon": 2.3282479996584429, "lat": 48.839814999675859, "value": 52 }, "geometry": { "type": "Point", "coordinates": [ 259179.381762435659766, 6247724.929710280150175 ] } },
{ "type": "Feature", "properties": { "numhoro": "66390107", "adresse": "0 BOULEVARD MURAT", "arrondt": 16, "regime": "ROTATIF", "acces_pmr": "Non", "tarif": "2 10U 50 ROT sept22", "zoneres": null, "paiement": "CB + Paris Carte", "geo_point_2d": { "lon": 2.2579019995163918, "lat": 48.845667999757524 }, "tarifhor_voiture": 4.0, "tarifhor_2r": 2.0, "lon": 2.2579019995163918, "lat": 48.845667999757524, "value": 37 }, "geometry": { "type": "Point", "coordinates": [ 251348.500847278977744, 6248714.939251183532178 ] } },
{ "type": "Feature", "properties": { "numhoro": "70440101", "adresse": "0 PLACE DU PARAGUAY", "arrondt": 16, "regime": "MIXTE", "acces_pmr": "Oui", "tarif": "2 10U 50 MIX sept22", "zoneres": "16F", "paiement": "CB + CB sans contact", "geo_point_2d": { "lon": 2.2767909997874751, "lat": 48.87148099963337 }, "tarifhor_voiture": 4.0, "tarifhor_2r": 2.0, "lon": 2.2767909997874751, "lat": 48.87148099963337, "value": 75 }, "geometry": { "type": "Point", "coordinates": [ 253451.214739049959462, 6253082.477079783566296 ] } },
{ "type": "Feature", "properties": { "numhoro": "3180304", "adresse": "0 vis-à-vis QUAI ANDRE CITROEN", "arrondt": 15, "regime": "MIXTE", "acces_pmr": "Oui", "tarif": "2 10U 50 MIX sept22", "zoneres": "15N", "paiement": "CB + CB sans contact", "geo_point_2d": { "lon": 2.2779989701643735, "lat": 48.846411439758192 }, "tarifhor_voiture": 4.0, "tarifhor_2r": 2.0, "lon": 2.2779989701643735, "lat": 48.846411439758192, "value": 53 }, "geometry": { "type": "Point", "coordinates": [ 253585.685386299650418, 6248840.697179890237749 ] } },
{ "type": "Feature", "properties": { "numhoro": "3180502", "adresse": "0 vis-à-vis QUAI ANDRE CITROEN", "arrondt": 15, "regime": "MIXTE", "acces_pmr": "Oui", "tarif": "2 10U 50 MIX sept22", "zoneres": "15N", "paiement": "CB + CB sans contact", "geo_point_2d": { "lon": 2.2753630203145425, "lat": 48.844433909744204 }, "tarifhor_voiture": 4.0, "tarifhor_2r": 2.0, "lon": 2.2753630203145425, "lat": 48.844433909744204, "value": 74 }, "geometry": { "type": "Point", "coordinates": [ 253292.252791259845253, 6248506.188659949228168 ] } },
{ "type": "Feature", "properties": { "numhoro": "86351704", "adresse": "256 RUE SAINT HONORE", "arrondt": 1, "regime": "MIXTE", "acces_pmr": "Oui", "tarif": "1 10U 75 MIX sept22", "zoneres": "1E", "paiement": "CB + CB sans contact", "geo_point_2d": { "lon": 2.3338929998677531, "lat": 48.86406000005028 }, "tarifhor_voiture": 6.0, "tarifhor_2r": 3.0, "lon": 2.3338929998677531, "lat": 48.86406000005028, "value": 96 }, "geometry": { "type": "Point", "coordinates": [ 259807.780311263952171, 6251826.619500260800123 ] } },
{ "type": "Feature", "properties": { "numhoro": "84930503", "adresse": "43 RUE SAINT AUGUSTIN", "arrondt": 2, "regime": "MIXTE", "acces_pmr": "Non", "tarif": "1 10U 75 MIX sept22", "zoneres": "2E", "paiement": "CB + Paris Carte", "geo_point_2d": { "lon": 2.3337500006686427, "lat": 48.868804999642627 }, "tarifhor_voiture": 6.0, "tarifhor_2r": 3.0, "lon": 2.3337500006686427, "lat": 48.868804999642627, "value": 54 }, "geometry": { "type": "Point", "coordinates": [ 259791.861713235179195, 6252629.595473194494843 ] } },
{ "type": "Feature", "properties": { "numhoro": "87940102", "adresse": "1 RUE SALOMON DE CAUS", "arrondt": 3, "regime": "MIXTE", "acces_pmr": "Oui", "tarif": "1 10U 75 MIX sept22", "zoneres": "3E", "paiement": "CB + CB sans contact", "geo_point_2d": { "lon": 2.3538983904230824, "lat": 48.867449999637181 }, "tarifhor_voiture": 6.0, "tarifhor_2r": 3.0, "lon": 2.3538983904230824, "lat": 48.867449999637181, "value": 44 }, "geometry": { "type": "Point", "coordinates": [ 262034.770201003790135, 6252400.286854518577456 ] } },
{ "type": "Feature", "properties": { "numhoro": "95061602", "adresse": "110 RUE DE TURENNE", "arrondt": 3, "regime": "ROTATIF", "acces_pmr": "Non", "tarif": "1 10U 75 ROT sept22", "zoneres": null, "paiement": "CB + Paris Carte", "geo_point_2d": { "lon": 2.3647380004704459, "lat": 48.862872999957439 }, "tarifhor_voiture": 6.0, "tarifhor_2r": 3.0, "lon": 2.3647380004704459, "lat": 48.862872999957439, "value": 43 }, "geometry": { "type": "Point", "coordinates": [ 263241.430071873939596, 6251625.760459795594215 ] } },
{ "type": "Feature", "properties": { "numhoro": "3520202", "adresse": "10 RUE ANKARA", "arrondt": 16, "regime": "MIXTE", "acces_pmr": "Oui", "tarif": "2 10U 50 MIX sept22", "zoneres": "16P", "paiement": "CB + CB sans contact", "geo_point_2d": { "lon": 2.2825590005513861, "lat": 48.855225000130098 }, "tarifhor_voiture": 4.0, "tarifhor_2r": 2.0, "lon": 2.2825590005513861, "lat": 48.855225000130098, "value": 55 }, "geometry": { "type": "Point", "coordinates": [ 254093.305646983732004, 6250331.71310246642679 ] } },
{ "type": "Feature", "properties": { "numhoro": "5550104", "adresse": "10 RUE AUGUSTE LANCON", "arrondt": 13, "regime": "MIXTE", "acces_pmr": "Oui", "tarif": "2 10U 50 MIX sept22", "zoneres": "13F", "paiement": "CB + CB sans contact", "geo_point_2d": { "lon": 2.3458469999893699, "lat": 48.824283000239681 }, "tarifhor_voiture": 4.0, "tarifhor_2r": 2.0, "lon": 2.3458469999893699, "lat": 48.824283000239681, "value": 33 }, "geometry": { "type": "Point", "coordinates": [ 261138.493517745053396, 6245098.320166429504752 ] } },
{ "type": "Feature", "properties": { "numhoro": "93820301", "adresse": "31 ter RUE DES TOURNELLES", "arrondt": 3, "regime": "MIXTE", "acces_pmr": "Non", "tarif": "1 10U 75 MIX sept22", "zoneres": "34F", "paiement": "CB + Paris Carte", "geo_point_2d": { "lon": 2.3672560001165168, "lat": 48.856307000146913 }, "tarifhor_voiture": 6.0, "tarifhor_2r": 3.0, "lon": 2.3672560001165168, "lat": 48.856307000146913, "value": 27 }, "geometry": { "type": "Point", "coordinates": [ 263521.732510292204097, 6250514.776316926814616 ] } },
{ "type": "Feature", "properties": { "numhoro": "95040901", "adresse": "47 RUE DE TURBIGO", "arrondt": 3, "regime": "ROTATIF", "acces_pmr": "Oui", "tarif": "1 10U 75 ROT sept22", "zoneres": null, "paiement": "CB + CB sans contact", "geo_point_2d": { "lon": 2.3538330003067691, "lat": 48.86502899966829 }, "tarifhor_voiture": 6.0, "tarifhor_2r": 3.0, "lon": 2.3538330003067691, "lat": 48.86502899966829, "value": 8 }, "geometry": { "type": "Point", "coordinates": [ 262027.491006552911131, 6251990.592971818521619 ] } },
{ "type": "Feature", "properties": { "numhoro": "38750101", "adresse": "5 RUE FROISSART", "arrondt": 3, "regime": "MIXTE", "acces_pmr": "Oui", "tarif": "1 10U 75 MIX sept22", "zoneres": "34F", "paiement": "CB + CB sans contact", "geo_point_2d": { "lon": 2.3665120002853128, "lat": 48.861414000025391 }, "tarifhor_voiture": 6.0, "tarifhor_2r": 3.0, "lon": 2.3665120002853128, "lat": 48.861414000025391, "value": 45 }, "geometry": { "type": "Point", "coordinates": [ 263438.910827932297252, 6251378.881304953247309 ] } },
{ "type": "Feature", "properties": { "numhoro": "68891301", "adresse": "103 RUE OLIVIER DE SERRES", "arrondt": 15, "regime": "MIXTE", "acces_pmr": "Oui", "tarif": "2 10U 50 MIX sept22", "zoneres": "15T", "paiement": "CB + CB sans contact", "geo_point_2d": { "lon": 2.2926890000383677, "lat": 48.831295999831774 }, "tarifhor_voiture": 4.0, "tarifhor_2r": 2.0, "lon": 2.2926890000383677, "lat": 48.831295999831774, "value": 38 }, "geometry": { "type": "Point", "coordinates": [ 255220.972031610668637, 6246284.184595498256385 ] } },
{ "type": "Feature", "properties": { "numhoro": "21570103", "adresse": "11 RUE DES CLOYS", "arrondt": 18, "regime": "MIXTE", "acces_pmr": "Non", "tarif": "2 10U 50 MIX sept22", "zoneres": "18N", "paiement": "CB + Paris Carte", "geo_point_2d": { "lon": 2.3405050002879704, "lat": 48.892567999945747 }, "tarifhor_voiture": 4.0, "tarifhor_2r": 2.0, "lon": 2.3405050002879704, "lat": 48.892567999945747, "value": 21 }, "geometry": { "type": "Point", "coordinates": [ 260543.824831167468801, 6256652.052308664657176 ] } },
{ "type": "Feature", "properties": { "numhoro": "48390103", "adresse": "11 RUE JAUCOURT", "arrondt": 12, "regime": "MIXTE", "acces_pmr": "Oui", "tarif": "2 10U 50 MIX sept22", "zoneres": "12H", "paiement": "CB + CB sans contact", "geo_point_2d": { "lon": 2.3947770000690229, "lat": 48.847086999894607 }, "tarifhor_voiture": 4.0, "tarifhor_2r": 2.0, "lon": 2.3947770000690229, "lat": 48.847086999894607, "value": 38 }, "geometry": { "type": "Point", "coordinates": [ 266585.356211126898415, 6248954.974387326277792 ] } },
{ "type": "Feature", "properties": { "numhoro": "73750103", "adresse": "11 RUE PHILIBERT LUCOT", "arrondt": 13, "regime": "MIXTE", "acces_pmr": "Non", "tarif": "2 10U 50 MIX sept22", "zoneres": "13M", "paiement": "CB + Paris Carte", "geo_point_2d": { "lon": 2.3613090004767385, "lat": 48.822145000026524 }, "tarifhor_voiture": 4.0, "tarifhor_2r": 2.0, "lon": 2.3613090004767385, "lat": 48.822145000026524, "value": 86 }, "geometry": { "type": "Point", "coordinates": [ 262859.715538644348271, 6244736.827642747201025 ] } },
{ "type": "Feature", "properties": { "numhoro": "14541001", "adresse": "117 RUE CAMBRONNE", "arrondt": 15, "regime": "ROTATIF", "acces_pmr": "Non", "tarif": "2 10U 50 ROT sept22", "zoneres": null, "paiement": "CB + Paris Carte", "geo_point_2d": { "lon": 2.3039320002834791, "lat": 48.841143000351913 }, "tarifhor_voiture": 4.0, "tarifhor_2r": 2.0, "lon": 2.3039320002834791, "lat": 48.841143000351913, "value": 41 }, "geometry": { "type": "Point", "coordinates": [ 256472.53709388509742, 6247949.545109254308045 ] } },
{ "type": "Feature", "properties": { "numhoro": "56960101", "adresse": "13 RUE LINNE", "arrondt": 5, "regime": "MIXTE", "acces_pmr": "Non", "tarif": "1 10U 75 MIX sept22", "zoneres": "5G", "paiement": "CB + Paris Carte", "geo_point_2d": { "lon": 2.3546409994372866, "lat": 48.844485000105152 }, "tarifhor_voiture": 6.0, "tarifhor_2r": 3.0, "lon": 2.3546409994372866, "lat": 48.844485000105152, "value": 93 }, "geometry": { "type": "Point", "coordinates": [ 262117.437058323528618, 6248514.830669015645981 ] } },
{ "type": "Feature", "properties": { "numhoro": "5030104", "adresse": "12 RUE DE L ASSOMPTION", "arrondt": 16, "regime": "MIXTE", "acces_pmr": "Oui", "tarif": "2 10U 50 MIX sept22", "zoneres": "16T", "paiement": "CB + CB sans contact", "geo_point_2d": { "lon": 2.2744320004831975, "lat": 48.853335999700299 }, "tarifhor_voiture": 4.0, "tarifhor_2r": 2.0, "lon": 2.2744320004831975, "lat": 48.853335999700299, "value": 71 }, "geometry": { "type": "Point", "coordinates": [ 253188.61213771608891, 6250012.123246337287128 ] } },
{ "type": "Feature", "properties": { "numhoro": "30060104", "adresse": "12 RUE DUPLEIX", "arrondt": 15, "regime": "MIXTE", "acces_pmr": "Oui", "tarif": "2 10U 50 MIX sept22", "zoneres": "15F", "paiement": "CB + CB sans contact", "geo_point_2d": { "lon": 2.2978269993261509, "lat": 48.851801999717587 }, "tarifhor_voiture": 4.0, "tarifhor_2r": 2.0, "lon": 2.2978269993261509, "lat": 48.851801999717587, "value": 57 }, "geometry": { "type": "Point", "coordinates": [ 255792.93149602288031, 6249752.602884884923697 ] } },
{ "type": "Feature", "properties": { "numhoro": "41860104", "adresse": "12 RUE GINOUX", "arrondt": 15, "regime": "MIXTE", "acces_pmr": "Non", "tarif": "2 10U 50 MIX sept22", "zoneres": "15M", "paiement": "CB + Paris Carte", "geo_point_2d": { "lon": 2.2861780005457999, "lat": 48.848308000443183 }, "tarifhor_voiture": 4.0, "tarifhor_2r": 2.0, "lon": 2.2861780005457999, "lat": 48.848308000443183, "value": 36 }, "geometry": { "type": "Point", "coordinates": [ 254496.170883542741649, 6249161.521766041405499 ] } },
{ "type": "Feature", "properties": { "numhoro": "51300202", "adresse": "17 vis-à-vis RUE JUSSIEU", "arrondt": 5, "regime": "MIXTE", "acces_pmr": "Non", "tarif": "1 10U 75 MIX sept22", "zoneres": "5G", "paiement": "CB + Paris Carte", "geo_point_2d": { "lon": 2.3556889996311594, "lat": 48.845825999929957 }, "tarifhor_voiture": 6.0, "tarifhor_2r": 3.0, "lon": 2.3556889996311594, "lat": 48.845825999929957, "value": 60 }, "geometry": { "type": "Point", "coordinates": [ 262234.099906256655231, 6248741.665897929109633 ] } },
{ "type": "Feature", "properties": { "numhoro": "5411108", "adresse": "120 BOULEVARD AUGUSTE BLANQUI", "arrondt": 13, "regime": "MIXTE", "acces_pmr": "Oui", "tarif": "2 10U 50 MIX sept22", "zoneres": "13H", "paiement": "CB + CB sans contact", "geo_point_2d": { "lon": 2.3428040006679973, "lat": 48.831566999808913 }, "tarifhor_voiture": 4.0, "tarifhor_2r": 2.0, "lon": 2.3428040006679973, "lat": 48.831566999808913, "value": 7 }, "geometry": { "type": "Point", "coordinates": [ 260799.748382805642905, 6246330.012716247700155 ] } },
{ "type": "Feature", "properties": { "numhoro": "17231101", "adresse": "121 RUE CHAMPIONNET", "arrondt": 18, "regime": "MIXTE", "acces_pmr": "Non", "tarif": "2 10U 50 MIX sept22", "zoneres": "18P", "paiement": "CB + Paris Carte", "geo_point_2d": { "lon": 2.3381329995920299, "lat": 48.895397999997591 }, "tarifhor_voiture": 4.0, "tarifhor_2r": 2.0, "lon": 2.3381329995920299, "lat": 48.895397999997591, "value": 78 }, "geometry": { "type": "Point", "coordinates": [ 260279.774921534117311, 6257131.224970714189112 ] } },
{ "type": "Feature", "properties": { "numhoro": "7270301", "adresse": "13 RUE BAUDOIN", "arrondt": 13, "regime": "MIXTE", "acces_pmr": "Non", "tarif": "2 10U 50 MIX sept22", "zoneres": "13R", "paiement": "CB + Paris Carte", "geo_point_2d": { "lon": 2.3686120000116873, "lat": 48.831904999738768 }, "tarifhor_voiture": 4.0, "tarifhor_2r": 2.0, "lon": 2.3686120000116873, "lat": 48.831904999738768, "value": 19 }, "geometry": { "type": "Point", "coordinates": [ 263672.681728138297331, 6246387.171376932412386 ] } },
{ "type": "Feature", "properties": { "numhoro": "20470101", "adresse": "13 RUE DES CINQ DIAMANTS", "arrondt": 13, "regime": "MIXTE", "acces_pmr": "Non", "tarif": "2 10U 50 MIX sept22", "zoneres": "13L", "paiement": "CB + Paris Carte", "geo_point_2d": { "lon": 2.3517260003953973, "lat": 48.829512000435848 }, "tarifhor_voiture": 4.0, "tarifhor_2r": 2.0, "lon": 2.3517260003953973, "lat": 48.829512000435848, "value": 86 }, "geometry": { "type": "Point", "coordinates": [ 261792.940849317528773, 6245982.503156246617436 ] } },
{ "type": "Feature", "properties": { "numhoro": "54470105", "adresse": "13 RUE LECLUSE", "arrondt": 17, "regime": "MIXTE", "acces_pmr": "Oui", "tarif": "2 10U 50 MIX sept22", "zoneres": "17R", "paiement": "CB + CB sans contact", "geo_point_2d": { "lon": 2.3253580000900334, "lat": 48.884101000110633 }, "tarifhor_voiture": 4.0, "tarifhor_2r": 2.0, "lon": 2.3253580000900334, "lat": 48.884101000110633, "value": 27 }, "geometry": { "type": "Point", "coordinates": [ 258857.668482087523444, 6255218.590662839822471 ] } },
{ "type": "Feature", "properties": { "numhoro": "56960301", "adresse": "31 bis RUE LINNE", "arrondt": 5, "regime": "MIXTE", "acces_pmr": "Oui", "tarif": "1 10U 75 MIX sept22", "zoneres": "5G", "paiement": "CB + CB sans contact", "geo_point_2d": { "lon": 2.3544899996115456, "lat": 48.845533999751979 }, "tarifhor_voiture": 6.0, "tarifhor_2r": 3.0, "lon": 2.3544899996115456, "lat": 48.845533999751979, "value": 5 }, "geometry": { "type": "Point", "coordinates": [ 262100.627834612125298, 6248692.272438129410148 ] } },
{ "type": "Feature", "properties": { "numhoro": "90590403", "adresse": "13 RUE SPONTINI", "arrondt": 16, "regime": "MIXTE", "acces_pmr": "Non", "tarif": "2 10U 50 MIX sept22", "zoneres": "16J", "paiement": "CB + Paris Carte", "geo_point_2d": { "lon": 2.2783040006337938, "lat": 48.869793999929612 }, "tarifhor_voiture": 4.0, "tarifhor_2r": 2.0, "lon": 2.2783040006337938, "lat": 48.869793999929612, "value": 71 }, "geometry": { "type": "Point", "coordinates": [ 253619.641222831938649, 6252796.969348262995481 ] } },
{ "type": "Feature", "properties": { "numhoro": "19120503", "adresse": "137 RUE DU CHATEAU", "arrondt": 14, "regime": "MIXTE", "acces_pmr": "Oui", "tarif": "2 10U 50 MIX sept22", "zoneres": "14N", "paiement": "CB + CB sans contact", "geo_point_2d": { "lon": 2.3213880005638674, "lat": 48.834621000265017 }, "tarifhor_voiture": 4.0, "tarifhor_2r": 2.0, "lon": 2.3213880005638674, "lat": 48.834621000265017, "value": 29 }, "geometry": { "type": "Point", "coordinates": [ 258415.730156385194277, 6246846.484147282317281 ] } },
{ "type": "Feature", "properties": { "numhoro": "25842002", "adresse": "138 AVENUE DAUMESNIL", "arrondt": 12, "regime": "MIXTE", "acces_pmr": "Non", "tarif": "2 10U 50 MIX sept22", "zoneres": "12J", "paiement": "CB + Paris Carte", "geo_point_2d": { "lon": 2.3901410001563965, "lat": 48.840764000164484 }, "tarifhor_voiture": 4.0, "tarifhor_2r": 2.0, "lon": 2.3901410001563965, "lat": 48.840764000164484, "value": 67 }, "geometry": { "type": "Point", "coordinates": [ 266069.279061535664368, 6247885.441162381321192 ] } },
{ "type": "Feature", "properties": { "numhoro": "20940702", "adresse": "52 RUE DE LA CLEF", "arrondt": 5, "regime": "MIXTE", "acces_pmr": "Non", "tarif": "1 10U 75 MIX sept22", "zoneres": "5G", "paiement": "CB + Paris Carte", "geo_point_2d": { "lon": 2.3527860001059966, "lat": 48.84322300037897 }, "tarifhor_voiture": 6.0, "tarifhor_2r": 3.0, "lon": 2.3527860001059966, "lat": 48.84322300037897, "value": 56 }, "geometry": { "type": "Point", "coordinates": [ 261910.939477342413738, 6248301.364155454561114 ] } },
{ "type": "Feature", "properties": { "numhoro": "45350208", "adresse": "56 RUE HENRI BARBUSSE", "arrondt": 5, "regime": "MIXTE", "acces_pmr": "Non", "tarif": "1 10U 75 MIX sept22", "zoneres": "5E", "paiement": "CB + Paris Carte", "geo_point_2d": { "lon": 2.3378829994642958, "lat": 48.839997000412062 }, "tarifhor_voiture": 6.0, "tarifhor_2r": 3.0, "lon": 2.3378829994642958, "lat": 48.839997000412062, "value": 63 }, "geometry": { "type": "Point", "coordinates": [ 260251.94503461648128, 6247755.712601468898356 ] } },
{ "type": "Feature", "properties": { "numhoro": "74670101", "adresse": "9 RUE PIERRE NICOLE", "arrondt": 5, "regime": "MIXTE", "acces_pmr": "Oui", "tarif": "1 10U 75 MIX sept22", "zoneres": "5E", "paiement": "CB + CB sans contact", "geo_point_2d": { "lon": 2.3403819997277053, "lat": 48.84187199993945 }, "tarifhor_voiture": 6.0, "tarifhor_2r": 3.0, "lon": 2.3403819997277053, "lat": 48.84187199993945, "value": 61 }, "geometry": { "type": "Point", "coordinates": [ 260530.132471431454178, 6248072.849184775725007 ] } },
{ "type": "Feature", "properties": { "numhoro": "66931401", "adresse": "155 RUE NATIONALE", "arrondt": 13, "regime": "MIXTE", "acces_pmr": "Non", "tarif": "2 10U 50 MIX sept22", "zoneres": "13L", "paiement": "CB + Paris Carte", "geo_point_2d": { "lon": 2.3630049994870501, "lat": 48.831963999621003 }, "tarifhor_voiture": 4.0, "tarifhor_2r": 2.0, "lon": 2.3630049994870501, "lat": 48.831963999621003, "value": 64 }, "geometry": { "type": "Point", "coordinates": [ 263048.513284858083352, 6246397.148797968402505 ] } },
{ "type": "Feature", "properties": { "numhoro": "87350105", "adresse": "16 RUE SAINT PLACIDE", "arrondt": 6, "regime": "ROTATIF", "acces_pmr": "Oui", "tarif": "1 10U 75 ROT sept22", "zoneres": null, "paiement": "CB + CB sans contact", "geo_point_2d": { "lon": 2.3247054899526267, "lat": 48.849622959680822 }, "tarifhor_voiture": 6.0, "tarifhor_2r": 3.0, "lon": 2.3247054899526267, "lat": 48.849622959680822, "value": 89 }, "geometry": { "type": "Point", "coordinates": [ 258785.031385853944812, 6249383.969054594635963 ] } },
{ "type": "Feature", "properties": { "numhoro": "84500104", "adresse": "16 RUE DES SABLONS", "arrondt": 16, "regime": "MIXTE", "acces_pmr": "Oui", "tarif": "2 10U 50 MIX sept22", "zoneres": "16J", "paiement": "CB + CB sans contact", "geo_point_2d": { "lon": 2.2835929995203661, "lat": 48.866029000096283 }, "tarifhor_voiture": 4.0, "tarifhor_2r": 2.0, "lon": 2.2835929995203661, "lat": 48.866029000096283, "value": 68 }, "geometry": { "type": "Point", "coordinates": [ 254208.409885691362433, 6252159.815708886831999 ] } },
{ "type": "Feature", "properties": { "numhoro": "17140204", "adresse": "16 RUE DU CHAMP DE L ALOUETTE", "arrondt": 13, "regime": "MIXTE", "acces_pmr": "Non", "tarif": "2 10U 50 MIX sept22", "zoneres": "13H", "paiement": "CB + Paris Carte", "geo_point_2d": { "lon": 2.3455299993492296, "lat": 48.832233000245637 }, "tarifhor_voiture": 4.0, "tarifhor_2r": 2.0, "lon": 2.3455299993492296, "lat": 48.832233000245637, "value": 24 }, "geometry": { "type": "Point", "coordinates": [ 261103.205167903506663, 6246442.639418870210648 ] } },
{ "type": "Feature", "properties": { "numhoro": "47760202", "adresse": "16 RUE JACQUEMONT", "arrondt": 17, "regime": "MIXTE", "acces_pmr": "Oui", "tarif": "2 10U 50 MIX sept22", "zoneres": "17R", "paiement": "CB + CB sans contact", "geo_point_2d": { "lon": 2.322301000322446, "lat": 48.887699999702733 }, "tarifhor_voiture": 4.0, "tarifhor_2r": 2.0, "lon": 2.322301000322446, "lat": 48.887699999702733, "value": 60 }, "geometry": { "type": "Point", "coordinates": [ 258517.364824604534078, 6255827.871028351597488 ] } },
{ "type": "Feature", "properties": { "numhoro": "74260202", "adresse": "16 RUE PIERRE DEMOURS", "arrondt": 17, "regime": "MIXTE", "acces_pmr": "Non", "tarif": "2 10U 50 MIX sept22", "zoneres": "17H", "paiement": "CB + Paris Carte", "geo_point_2d": { "lon": 2.2928889997552182, "lat": 48.880399999808468 }, "tarifhor_voiture": 4.0, "tarifhor_2r": 2.0, "lon": 2.2928889997552182, "lat": 48.880399999808468, "value": 2 }, "geometry": { "type": "Point", "coordinates": [ 255243.235898249258753, 6254592.088161749765277 ] } },
{ "type": "Feature", "properties": { "numhoro": "49031701", "adresse": "165 AVENUE JEAN JAURES", "arrondt": 19, "regime": "ROTATIF", "acces_pmr": "Non", "tarif": "2 10U 50 ROT sept22", "zoneres": null, "paiement": "CB + Paris Carte", "geo_point_2d": { "lon": 2.3874130005013807, "lat": 48.887398000111077 }, "tarifhor_voiture": 4.0, "tarifhor_2r": 2.0, "lon": 2.3874130005013807, "lat": 48.887398000111077, "value": 15 }, "geometry": { "type": "Point", "coordinates": [ 265765.599529055063613, 6255776.74335168953985 ] } },
{ "type": "Feature", "properties": { "numhoro": "59951301", "adresse": "17 RUE DU MAINE", "arrondt": 14, "regime": "ROTATIF", "acces_pmr": "Oui", "tarif": "2 10U 50 ROT sept22", "zoneres": null, "paiement": "CB + CB sans contact", "geo_point_2d": { "lon": 2.3223730005516079, "lat": 48.840586000284539 }, "tarifhor_voiture": 4.0, "tarifhor_2r": 2.0, "lon": 2.3223730005516079, "lat": 48.840586000284539, "value": 24 }, "geometry": { "type": "Point", "coordinates": [ 258525.379853451828239, 6247855.334498110227287 ] } },
{ "type": "Feature", "properties": { "numhoro": "92510105", "adresse": "17 RUE THEODULE RIBOT", "arrondt": 17, "regime": "MIXTE", "acces_pmr": "Oui", "tarif": "2 10U 50 MIX sept22", "zoneres": "17J", "paiement": "CB + CB sans contact", "geo_point_2d": { "lon": 2.3000290001975445, "lat": 48.880055000244546 }, "tarifhor_voiture": 4.0, "tarifhor_2r": 2.0, "lon": 2.3000290001975445, "lat": 48.880055000244546, "value": 18 }, "geometry": { "type": "Point", "coordinates": [ 256038.057111752772471, 6254533.689261559396982 ] } },
{ "type": "Feature", "properties": { "numhoro": "4990502", "adresse": "58 RUE D ASSAS", "arrondt": 6, "regime": "MIXTE", "acces_pmr": "Oui", "tarif": "1 10U 75 MIX sept22", "zoneres": "6G", "paiement": "CB + CB sans contact", "geo_point_2d": { "lon": 2.3307860006572816, "lat": 48.846416999800802 }, "tarifhor_voiture": 6.0, "tarifhor_2r": 3.0, "lon": 2.3307860006572816, "lat": 48.846416999800802, "value": 49 }, "geometry": { "type": "Point", "coordinates": [ 259461.910741259198403, 6248841.63770591840148 ] } },
{ "type": "Feature", "properties": { "numhoro": "89860202", "adresse": "18 RUE DU SIMPLON", "arrondt": 18, "regime": "MIXTE", "acces_pmr": "Non", "tarif": "2 10U 50 MIX sept22", "zoneres": "18M", "paiement": "CB + Paris Carte", "geo_point_2d": { "lon": 2.3504330000556424, "lat": 48.893794000219131 }, "tarifhor_voiture": 4.0, "tarifhor_2r": 2.0, "lon": 2.3504330000556424, "lat": 48.893794000219131, "value": 56 }, "geometry": { "type": "Point", "coordinates": [ 261649.004709900473244, 6256859.634068259038031 ] } },
{ "type": "Feature", "properties": { "numhoro": "19901103", "adresse": "181 RUE DU CHEVALERET", "arrondt": 13, "regime": "MIXTE", "acces_pmr": "Non", "tarif": "2 10U 50 MIX sept22", "zoneres": "13R", "paiement": "CB + Paris Carte", "geo_point_2d": { "lon": 2.3682219999370422, "lat": 48.833882999639378 }, "tarifhor_voiture": 4.0, "tarifhor_2r": 2.0, "lon": 2.3682219999370422, "lat": 48.833882999639378, "value": 35 }, "geometry": { "type": "Point", "coordinates": [ 263629.267118419462349, 6246721.675701851025224 ] } },
{ "type": "Feature", "properties": { "numhoro": "54561701", "adresse": "183 RUE LECOURBE", "arrondt": 15, "regime": "MIXTE", "acces_pmr": "Oui", "tarif": "2 10U 50 MIX sept22", "zoneres": "15R", "paiement": "CB + CB sans contact", "geo_point_2d": { "lon": 2.296889000340427, "lat": 48.840802000263281 }, "tarifhor_voiture": 4.0, "tarifhor_2r": 2.0, "lon": 2.296889000340427, "lat": 48.840802000263281, "value": 11 }, "geometry": { "type": "Point", "coordinates": [ 255688.51392656750977, 6247891.868462690152228 ] } },
{ "type": "Feature", "properties": { "numhoro": "79041605", "adresse": "185 RUE DES PYRENEES", "arrondt": 20, "regime": "MIXTE", "acces_pmr": "Non", "tarif": "2 10U 50 MIX sept22", "zoneres": "20L", "paiement": "CB + Paris Carte", "geo_point_2d": { "lon": 2.4002469995831479, "lat": 48.861133999716635 }, "tarifhor_voiture": 4.0, "tarifhor_2r": 2.0, "lon": 2.4002469995831479, "lat": 48.861133999716635, "value": 97 }, "geometry": { "type": "Point", "coordinates": [ 267194.27377167873783, 6251331.502934908494353 ] } },
{ "type": "Feature", "properties": { "numhoro": "32030104", "adresse": "10 AVENUE EMILE ACOLLAS", "arrondt": 7, "regime": "MIXTE", "acces_pmr": "Non", "tarif": "1 10U 75 MIX sept22", "zoneres": "7F", "paiement": "CB + Paris Carte", "geo_point_2d": { "lon": 2.3004929994059684, "lat": 48.852090000264774 }, "tarifhor_voiture": 6.0, "tarifhor_2r": 3.0, "lon": 2.3004929994059684, "lat": 48.852090000264774, "value": 22 }, "geometry": { "type": "Point", "coordinates": [ 256089.709267362981336, 6249801.325881556607783 ] } },
{ "type": "Feature", "properties": { "numhoro": "28170203", "adresse": "19 RUE DU DOCTEUR BLANCHE", "arrondt": 16, "regime": "MIXTE", "acces_pmr": "Oui", "tarif": "2 10U 50 MIX sept22", "zoneres": "16S", "paiement": "CB + CB sans contact", "geo_point_2d": { "lon": 2.2656569998883787, "lat": 48.854473000127975 }, "tarifhor_voiture": 4.0, "tarifhor_2r": 2.0, "lon": 2.2656569998883787, "lat": 48.854473000127975, "value": 17 }, "geometry": { "type": "Point", "coordinates": [ 252211.783539790194482, 6250204.484808684326708 ] } },
{ "type": "Feature", "properties": { "numhoro": "97970102", "adresse": "2 RUE VIGEE LEBRUN", "arrondt": 15, "regime": "MIXTE", "acces_pmr": "Non", "tarif": "2 10U 50 MIX sept22", "zoneres": "15J", "paiement": "CB + Paris Carte", "geo_point_2d": { "lon": 2.3098500005086708, "lat": 48.839268000391598 }, "tarifhor_voiture": 4.0, "tarifhor_2r": 2.0, "lon": 2.3098500005086708, "lat": 48.839268000391598, "value": 51 }, "geometry": { "type": "Point", "coordinates": [ 257131.325865467922995, 6247632.413068503141403 ] } },
{ "type": "Feature", "properties": { "numhoro": "76442501", "adresse": "2 vis-à-vis PLACE DE LA PORTE D AUTEUIL", "arrondt": 16, "regime": "MIXTE", "acces_pmr": "Non", "tarif": "2 10U 50 MIX sept22", "zoneres": "16R", "paiement": "CB + Paris Carte", "geo_point_2d": { "lon": 2.2585080005685363, "lat": 48.848526000400639 }, "tarifhor_voiture": 4.0, "tarifhor_2r": 2.0, "lon": 2.2585080005685363, "lat": 48.848526000400639, "value": 59 }, "geometry": { "type": "Point", "coordinates": [ 251415.960575823875843, 6249198.399691129103303 ] } },
{ "type": "Feature", "properties": { "numhoro": "95270202", "adresse": "18 RUE DE L UNIVERSITE", "arrondt": 7, "regime": "MIXTE", "acces_pmr": "Non", "tarif": "1 10U 75 MIX sept22", "zoneres": "7L", "paiement": "CB + Paris Carte", "geo_point_2d": { "lon": 2.3299230004771703, "lat": 48.857028999610989 }, "tarifhor_voiture": 6.0, "tarifhor_2r": 3.0, "lon": 2.3299230004771703, "lat": 48.857028999610989, "value": 62 }, "geometry": { "type": "Point", "coordinates": [ 259365.842000654665753, 6250636.933361507952213 ] } },
{ "type": "Feature", "properties": { "numhoro": "61260206", "adresse": "20 RUE MARSOULAN", "arrondt": 12, "regime": "MIXTE", "acces_pmr": "Oui", "tarif": "2 10U 50 MIX sept22", "zoneres": "12R", "paiement": "CB + CB sans contact", "geo_point_2d": { "lon": 2.4033510004563055, "lat": 48.846473999679148 }, "tarifhor_voiture": 4.0, "tarifhor_2r": 2.0, "lon": 2.4033510004563055, "lat": 48.846473999679148, "value": 93 }, "geometry": { "type": "Point", "coordinates": [ 267539.809568300493993, 6248851.279700855724514 ] } },
{ "type": "Feature", "properties": { "numhoro": "13730301", "adresse": "21 AVENUE BUGEAUD", "arrondt": 16, "regime": "MIXTE", "acces_pmr": "Oui", "tarif": "2 10U 50 MIX sept22", "zoneres": "16J", "paiement": "CB + CB sans contact", "geo_point_2d": { "lon": 2.2822879999605061, "lat": 48.870264000098025 }, "tarifhor_voiture": 4.0, "tarifhor_2r": 2.0, "lon": 2.2822879999605061, "lat": 48.870264000098025, "value": 76 }, "geometry": { "type": "Point", "coordinates": [ 254063.137999202299397, 6252876.511181996203959 ] } },
{ "type": "Feature", "properties": { "numhoro": "42710401", "adresse": "21 AVENUE DE LA GRANDE ARMEE", "arrondt": 16, "regime": "ROTATIF", "acces_pmr": "Oui", "tarif": "2 10U 50 ROT sept22", "zoneres": null, "paiement": "CB + CB sans contact", "geo_point_2d": { "lon": 2.2907130004014129, "lat": 48.874983999650148 }, "tarifhor_voiture": 4.0, "tarifhor_2r": 2.0, "lon": 2.2907130004014129, "lat": 48.874983999650148, "value": 60 }, "geometry": { "type": "Point", "coordinates": [ 255001.004758217168273, 6253675.355348736979067 ] } },
{ "type": "Feature", "properties": { "numhoro": "1180102", "adresse": "2 RUE ALBERT DE LAPPARENT", "arrondt": 7, "regime": "MIXTE", "acces_pmr": "Oui", "tarif": "1 10U 75 MIX sept22", "zoneres": "7K", "paiement": "CB + CB sans contact", "geo_point_2d": { "lon": 2.3085169998379085, "lat": 48.848696999911411 }, "tarifhor_voiture": 6.0, "tarifhor_2r": 3.0, "lon": 2.3085169998379085, "lat": 48.848696999911411, "value": 17 }, "geometry": { "type": "Point", "coordinates": [ 256982.936909571551951, 6249227.326906146481633 ] } },
{ "type": "Feature", "properties": { "numhoro": "95272701", "adresse": "207 RUE DE L UNIVERSITE", "arrondt": 7, "regime": "MIXTE", "acces_pmr": "Oui", "tarif": "1 10U 75 MIX sept22", "zoneres": "7E", "paiement": "CB + CB sans contact", "geo_point_2d": { "lon": 2.2984089994780108, "lat": 48.860410000103109 }, "tarifhor_voiture": 6.0, "tarifhor_2r": 3.0, "lon": 2.2984089994780108, "lat": 48.860410000103109, "value": 65 }, "geometry": { "type": "Point", "coordinates": [ 255857.719456569553586, 6251208.997435838915408 ] } },
{ "type": "Feature", "properties": { "numhoro": "58270501", "adresse": "23 AVENUE DE LOWENDAL", "arrondt": 7, "regime": "MIXTE", "acces_pmr": "Oui", "tarif": "1 10U 75 MIX sept22", "zoneres": "7H", "paiement": "CB + CB sans contact", "geo_point_2d": { "lon": 2.3049690003399022, "lat": 48.850161000376708 }, "tarifhor_voiture": 6.0, "tarifhor_2r": 3.0, "lon": 2.3049690003399022, "lat": 48.850161000376708, "value": 67 }, "geometry": { "type": "Point", "coordinates": [ 256587.975412118743407, 6249474.989296995103359 ] } },
{ "type": "Feature", "properties": { "numhoro": "57660301", "adresse": "22 vis-à-vis QUAI LOUIS BLERIOT", "arrondt": 16, "regime": "MIXTE", "acces_pmr": "Oui", "tarif": "2 10U 50 MIX sept22", "zoneres": "16T", "paiement": "CB + CB sans contact", "geo_point_2d": { "lon": 2.2766730002439548, "lat": 48.849404000120686 }, "tarifhor_voiture": 4.0, "tarifhor_2r": 2.0, "lon": 2.2766730002439548, "lat": 48.849404000120686, "value": 4 }, "geometry": { "type": "Point", "coordinates": [ 253438.079089951439528, 6249346.927987371571362 ] } },
{ "type": "Feature", "properties": { "numhoro": "8811001", "adresse": "223 RUE DE BERCY", "arrondt": 12, "regime": "MIXTE", "acces_pmr": "Oui", "tarif": "2 10U 50 MIX sept22", "zoneres": "12E", "paiement": "CB + CB sans contact", "geo_point_2d": { "lon": 2.370489000205549, "lat": 48.845998999878248 }, "tarifhor_voiture": 4.0, "tarifhor_2r": 2.0, "lon": 2.370489000205549, "lat": 48.845998999878248, "value": 97 }, "geometry": { "type": "Point", "coordinates": [ 263881.628433937905356, 6248770.929940587840974 ] } },
{ "type": "Feature", "properties": { "numhoro": "89090704", "adresse": "28 terre-plein contre-allée AVENUE DE SEGUR", "arrondt": 7, "regime": "MIXTE", "acces_pmr": "Non", "tarif": "1 10U 75 MIX sept22", "zoneres": "7H", "paiement": "CB + Paris Carte", "geo_point_2d": { "lon": 2.3071130003203844, "lat": 48.849002999939685 }, "tarifhor_voiture": 6.0, "tarifhor_2r": 3.0, "lon": 2.3071130003203844, "lat": 48.849002999939685, "value": 35 }, "geometry": { "type": "Point", "coordinates": [ 256826.644398206786718, 6249279.091795619577169 ] } },
{ "type": "Feature", "properties": { "numhoro": "93372802", "adresse": "234 RUE DE TOLBIAC", "arrondt": 13, "regime": "ROTATIF", "acces_pmr": "Oui", "tarif": "2 10U 50 ROT sept22", "zoneres": null, "paiement": "CB + CB sans contact", "geo_point_2d": { "lon": 2.3429710004964477, "lat": 48.826368999614182 }, "tarifhor_voiture": 4.0, "tarifhor_2r": 2.0, "lon": 2.3429710004964477, "lat": 48.826368999614182, "value": 47 }, "geometry": { "type": "Point", "coordinates": [ 260818.33871867126436, 6245451.03526568505913 ] } },
{ "type": "Feature", "properties": { "numhoro": "20610106", "adresse": "24 RUE DE CIVRY", "arrondt": 16, "regime": "MIXTE", "acces_pmr": "Non", "tarif": "2 10U 50 MIX sept22", "zoneres": "16Y", "paiement": "CB + Paris Carte", "geo_point_2d": { "lon": 2.2574030006804993, "lat": 48.842848999990132 }, "tarifhor_voiture": 4.0, "tarifhor_2r": 2.0, "lon": 2.2574030006804993, "lat": 48.842848999990132, "value": 33 }, "geometry": { "type": "Point", "coordinates": [ 251292.952550960966619, 6248238.103242289274931 ] } },
{ "type": "Feature", "properties": { "numhoro": "31320101", "adresse": "5 RUE EDMOND ROGER", "arrondt": 15, "regime": "MIXTE", "acces_pmr": "Oui", "tarif": "2 10U 50 MIX sept22", "zoneres": "15L", "paiement": "CB + CB sans contact", "geo_point_2d": { "lon": 2.2903579993296517, "lat": 48.845468999690077 }, "tarifhor_voiture": 4.0, "tarifhor_2r": 2.0, "lon": 2.2903579993296517, "lat": 48.845468999690077, "value": 51 }, "geometry": { "type": "Point", "coordinates": [ 254961.486219677637564, 6248681.277354075573385 ] } },
{ "type": "Feature", "properties": { "numhoro": "94790101", "adresse": "5 RUE TROYON", "arrondt": 17, "regime": "MIXTE", "acces_pmr": "Oui", "tarif": "2 10U 50 MIX sept22", "zoneres": "17E", "paiement": "CB + CB sans contact", "geo_point_2d": { "lon": 2.2955199993310793, "lat": 48.875817999710655 }, "tarifhor_voiture": 4.0, "tarifhor_2r": 2.0, "lon": 2.2955199993310793, "lat": 48.875817999710655, "value": 38 }, "geometry": { "type": "Point", "coordinates": [ 255536.117431311460678, 6253816.514909960329533 ] } },
{ "type": "Feature", "properties": { "numhoro": "52880701", "adresse": "51 bis RUE LAMARCK", "arrondt": 18, "regime": "MIXTE", "acces_pmr": "Oui", "tarif": "2 10U 50 MIX sept22", "zoneres": "18F", "paiement": "CB + CB sans contact", "geo_point_2d": { "lon": 2.3390630003554853, "lat": 48.889845999822448 }, "tarifhor_voiture": 4.0, "tarifhor_2r": 2.0, "lon": 2.3390630003554853, "lat": 48.889845999822448, "value": 100 }, "geometry": { "type": "Point", "coordinates": [ 260383.30213295930298, 6256191.191672155633569 ] } },
{ "type": "Feature", "properties": { "numhoro": "45020403", "adresse": "51 RUE D HAUTPOUL", "arrondt": 19, "regime": "MIXTE", "acces_pmr": "Non", "tarif": "2 10U 50 MIX sept22", "zoneres": "19K", "paiement": "CB + Paris Carte", "geo_point_2d": { "lon": 2.387209959802655, "lat": 48.884855780151717 }, "tarifhor_voiture": 4.0, "tarifhor_2r": 2.0, "lon": 2.387209959802655, "lat": 48.884855780151717, "value": 51 }, "geometry": { "type": "Point", "coordinates": [ 265742.997141862637363, 6255346.364942850545049 ] } },
{ "type": "Feature", "properties": { "numhoro": "69800601", "adresse": "51 RUE DE L OURCQ", "arrondt": 19, "regime": "MIXTE", "acces_pmr": "Non", "tarif": "2 10U 50 MIX sept22", "zoneres": "19F", "paiement": "CB + Paris Carte", "geo_point_2d": { "lon": 2.3817050004281199, "lat": 48.890891000434472 }, "tarifhor_voiture": 4.0, "tarifhor_2r": 2.0, "lon": 2.3817050004281199, "lat": 48.890891000434472, "value": 81 }, "geometry": { "type": "Point", "coordinates": [ 265130.187867451750208, 6256368.117296204902232 ] } },
{ "type": "Feature", "properties": { "numhoro": "90590703", "adresse": "51 RUE SPONTINI", "arrondt": 16, "regime": "MIXTE", "acces_pmr": "Oui", "tarif": "2 10U 50 MIX sept22", "zoneres": "16L", "paiement": "CB + CB sans contact", "geo_point_2d": { "lon": 2.2766750006350316, "lat": 48.866972000150085 }, "tarifhor_voiture": 4.0, "tarifhor_2r": 2.0, "lon": 2.2766750006350316, "lat": 48.866972000150085, "value": 19 }, "geometry": { "type": "Point", "coordinates": [ 253438.3017724675301, 6252319.395788745954633 ] } },
{ "type": "Feature", "properties": { "numhoro": "41590102", "adresse": "7 RUE GERANDO", "arrondt": 9, "regime": "MIXTE", "acces_pmr": "Oui", "tarif": "1 10U 75 MIX sept22", "zoneres": "9F", "paiement": "CB + CB sans contact", "geo_point_2d": { "lon": 2.3453890002094768, "lat": 48.882041999603686 }, "tarifhor_voiture": 6.0, "tarifhor_2r": 3.0, "lon": 2.3453890002094768, "lat": 48.882041999603686, "value": 76 }, "geometry": { "type": "Point", "coordinates": [ 261087.509215463971486, 6254870.038909936323762 ] } },
{ "type": "Feature", "properties": { "numhoro": "99340301", "adresse": "9 RUE DE LA CHAUSSEE D ANTIN", "arrondt": 9, "regime": "ROTATIF", "acces_pmr": "Oui", "tarif": "1 10U 75 ROT sept22", "zoneres": null, "paiement": "CB + CB sans contact", "geo_point_2d": { "lon": 2.3335231106425889, "lat": 48.872350079575391 }, "tarifhor_voiture": 6.0, "tarifhor_2r": 3.0, "lon": 2.3335231106425889, "lat": 48.872350079575391, "value": 33 }, "geometry": { "type": "Point", "coordinates": [ 259766.604431068757549, 6253229.563875630497932 ] } },
{ "type": "Feature", "properties": { "numhoro": "82320501", "adresse": "53 RUE DES RIGOLES", "arrondt": 20, "regime": "MIXTE", "acces_pmr": "Non", "tarif": "2 10U 50 MIX sept22", "zoneres": "20M", "paiement": "CB + Paris Carte", "geo_point_2d": { "lon": 2.3916760003006798, "lat": 48.87294100015432 }, "tarifhor_voiture": 4.0, "tarifhor_2r": 2.0, "lon": 2.3916760003006798, "lat": 48.87294100015432, "value": 61 }, "geometry": { "type": "Point", "coordinates": [ 266240.154495964874513, 6253329.575253816321492 ] } },
{ "type": "Feature", "properties": { "numhoro": "88920501", "adresse": "53 RUE SEBASTIEN MERCIER", "arrondt": 15, "regime": "MIXTE", "acces_pmr": "Non", "tarif": "2 10U 50 MIX sept22", "zoneres": "15N", "paiement": "CB + Paris Carte", "geo_point_2d": { "lon": 2.2810050004698268, "lat": 48.843411000154696 }, "tarifhor_voiture": 4.0, "tarifhor_2r": 2.0, "lon": 2.2810050004698268, "lat": 48.843411000154696, "value": 97 }, "geometry": { "type": "Point", "coordinates": [ 253920.315149211877724, 6248333.163866287097335 ] } },
{ "type": "Feature", "properties": { "numhoro": "33240602", "adresse": "54 bis RUE DE L ERMITAGE", "arrondt": 20, "regime": "MIXTE", "acces_pmr": "Non", "tarif": "2 10U 50 MIX sept22", "zoneres": "20M", "paiement": "CB + Paris Carte", "geo_point_2d": { "lon": 2.3937440000737862, "lat": 48.872469999979344 }, "tarifhor_voiture": 4.0, "tarifhor_2r": 2.0, "lon": 2.3937440000737862, "lat": 48.872469999979344, "value": 69 }, "geometry": { "type": "Point", "coordinates": [ 266470.363177667721175, 6253249.859916833229363 ] } },
{ "type": "Feature", "properties": { "numhoro": "32930404", "adresse": "54 RUE DES ENVIERGES", "arrondt": 20, "regime": "MIXTE", "acces_pmr": "Non", "tarif": "2 10U 50 MIX sept22", "zoneres": "20E", "paiement": "CB + Paris Carte", "geo_point_2d": { "lon": 2.3887650001879375, "lat": 48.872538000159224 }, "tarifhor_voiture": 4.0, "tarifhor_2r": 2.0, "lon": 2.3887650001879375, "lat": 48.872538000159224, "value": 88 }, "geometry": { "type": "Point", "coordinates": [ 265916.103445715270936, 6253261.368692646734416 ] } },
{ "type": "Feature", "properties": { "numhoro": "29550301", "adresse": "55 RUE DU COUEDIC", "arrondt": 14, "regime": "MIXTE", "acces_pmr": "Non", "tarif": "2 10U 50 MIX sept22", "zoneres": "14L", "paiement": "CB + Paris Carte", "geo_point_2d": { "lon": 2.3298760002487251, "lat": 48.830038000172777 }, "tarifhor_voiture": 4.0, "tarifhor_2r": 2.0, "lon": 2.3298760002487251, "lat": 48.830038000172777, "value": 33 }, "geometry": { "type": "Point", "coordinates": [ 259360.60995915698004, 6246071.450700731016695 ] } },
{ "type": "Feature", "properties": { "numhoro": "44400602", "adresse": "56 RUE GUY MOQUET", "arrondt": 17, "regime": "ROTATIF", "acces_pmr": "Oui", "tarif": "2 10U 50 ROT sept22", "zoneres": null, "paiement": "CB + CB sans contact", "geo_point_2d": { "lon": 2.3253820002552867, "lat": 48.892480999997417 }, "tarifhor_voiture": 4.0, "tarifhor_2r": 2.0, "lon": 2.3253820002552867, "lat": 48.892480999997417, "value": 26 }, "geometry": { "type": "Point", "coordinates": [ 258860.340168262453517, 6256637.321997746825218 ] } },
{ "type": "Feature", "properties": { "numhoro": "43131202", "adresse": "57 vis-à-vis QUAI DE GRENELLE", "arrondt": 15, "regime": "MIXTE", "acces_pmr": "Oui", "tarif": "2 10U 50 MIX sept22", "zoneres": "15M", "paiement": "CB + CB sans contact", "geo_point_2d": { "lon": 2.283551000121137, "lat": 48.850392999562793 }, "tarifhor_voiture": 4.0, "tarifhor_2r": 2.0, "lon": 2.283551000121137, "lat": 48.850392999562793, "value": 31 }, "geometry": { "type": "Point", "coordinates": [ 254203.734533955575898, 6249514.236857065930963 ] } },
{ "type": "Feature", "properties": { "numhoro": "80610702", "adresse": "58 RUE RAYMOND LOSSERAND", "arrondt": 14, "regime": "ROTATIF", "acces_pmr": "Oui", "tarif": "2 10U 50 ROT sept22", "zoneres": null, "paiement": "CB + CB sans contact", "geo_point_2d": { "lon": 2.3185900003226489, "lat": 48.834335999729774 }, "tarifhor_voiture": 4.0, "tarifhor_2r": 2.0, "lon": 2.3185900003226489, "lat": 48.834335999729774, "value": 99 }, "geometry": { "type": "Point", "coordinates": [ 258104.258194293273846, 6246798.28549631498754 ] } },
{ "type": "Feature", "properties": { "numhoro": "34720104", "adresse": "6 AVENUE D EYLAU", "arrondt": 16, "regime": "MIXTE", "acces_pmr": "Non", "tarif": "2 10U 50 MIX sept22", "zoneres": "16K", "paiement": "CB + Paris Carte", "geo_point_2d": { "lon": 2.2862929998053438, "lat": 48.863735000151024 }, "tarifhor_voiture": 4.0, "tarifhor_2r": 2.0, "lon": 2.2862929998053438, "lat": 48.863735000151024, "value": 52 }, "geometry": { "type": "Point", "coordinates": [ 254508.972542556817643, 6251771.6239442396909 ] } },
{ "type": "Feature", "properties": { "numhoro": "8620102", "adresse": "6 RUE BENJAMIN CONSTANT", "arrondt": 19, "regime": "MIXTE", "acces_pmr": "Oui", "tarif": "2 10U 50 MIX sept22", "zoneres": "19E", "paiement": "CB + CB sans contact", "geo_point_2d": { "lon": 2.3823160000518624, "lat": 48.895429000235836 }, "tarifhor_voiture": 4.0, "tarifhor_2r": 2.0, "lon": 2.3823160000518624, "lat": 48.895429000235836, "value": 53 }, "geometry": { "type": "Point", "coordinates": [ 265198.204034441616386, 6257136.474048972129822 ] } },
{ "type": "Feature", "properties": { "numhoro": "14900102", "adresse": "6 RUE CANNEBIERE", "arrondt": 12, "regime": "MIXTE", "acces_pmr": "Oui", "tarif": "2 10U 50 MIX sept22", "zoneres": "12K", "paiement": "CB + CB sans contact", "geo_point_2d": { "lon": 2.3982349993674732, "lat": 48.838116999719112 }, "tarifhor_voiture": 4.0, "tarifhor_2r": 2.0, "lon": 2.3982349993674732, "lat": 48.838116999719112, "value": 27 }, "geometry": { "type": "Point", "coordinates": [ 266970.298932193836663, 6247437.742042277008295 ] } },
{ "type": "Feature", "properties": { "numhoro": "66430102", "adresse": "6 RUE DES MURIERS", "arrondt": 20, "regime": "MIXTE", "acces_pmr": "Oui", "tarif": "2 10U 50 MIX sept22", "zoneres": "20F", "paiement": "CB + CB sans contact", "geo_point_2d": { "lon": 2.3915159994754718, "lat": 48.864450000231422 }, "tarifhor_voiture": 4.0, "tarifhor_2r": 2.0, "lon": 2.3915159994754718, "lat": 48.864450000231422, "value": 57 }, "geometry": { "type": "Point", "coordinates": [ 266222.343285576207563, 6251892.614690026268363 ] } },
{ "type": "Feature", "properties": { "numhoro": "84340104", "adresse": "6 RUE RUHMKORFF", "arrondt": 17, "regime": "MIXTE", "acces_pmr": "Oui", "tarif": "2 10U 50 MIX sept22", "zoneres": "17F", "paiement": "CB + CB sans contact", "geo_point_2d": { "lon": 2.2864230004257218, "lat": 48.881687999916977 }, "tarifhor_voiture": 4.0, "tarifhor_2r": 2.0, "lon": 2.2864230004257218, "lat": 48.881687999916977, "value": 69 }, "geometry": { "type": "Point", "coordinates": [ 254523.444145420071436, 6254810.114575591869652 ] } },
{ "type": "Feature", "properties": { "numhoro": "88110102", "adresse": "6 RUE SANTERRE", "arrondt": 12, "regime": "MIXTE", "acces_pmr": "Oui", "tarif": "2 10U 50 MIX sept22", "zoneres": "12P", "paiement": "CB + CB sans contact", "geo_point_2d": { "lon": 2.3981250003714241, "lat": 48.84272500035371 }, "tarifhor_voiture": 4.0, "tarifhor_2r": 2.0, "lon": 2.3981250003714241, "lat": 48.84272500035371, "value": 64 }, "geometry": { "type": "Point", "coordinates": [ 266958.053899965947494, 6248217.129223369061947 ] } },
{ "type": "Feature", "properties": { "numhoro": "41410201", "adresse": "6 vis-à-vis AVENUE GEORGES MANDEL", "arrondt": 16, "regime": "MIXTE", "acces_pmr": "Oui", "tarif": "2 10U 50 MIX sept22", "zoneres": "16K", "paiement": "CB + CB sans contact", "geo_point_2d": { "lon": 2.2849919993338257, "lat": 48.863151999831828 }, "tarifhor_voiture": 4.0, "tarifhor_2r": 2.0, "lon": 2.2849919993338257, "lat": 48.863151999831828, "value": 96 }, "geometry": { "type": "Point", "coordinates": [ 254364.145832545560552, 6251672.97118794452399 ] } },
{ "type": "Feature", "properties": { "numhoro": "67990101", "adresse": "6 vis-à-vis RUE DE NOISIEL", "arrondt": 16, "regime": "MIXTE", "acces_pmr": "Oui", "tarif": "2 10U 50 MIX sept22", "zoneres": "16J", "paiement": "CB + CB sans contact", "geo_point_2d": { "lon": 2.2782099995706528, "lat": 48.869006999972839 }, "tarifhor_voiture": 4.0, "tarifhor_2r": 2.0, "lon": 2.2782099995706528, "lat": 48.869006999972839, "value": 30 }, "geometry": { "type": "Point", "coordinates": [ 253609.177072349091759, 6252663.780814280733466 ] } },
{ "type": "Feature", "properties": { "numhoro": "35530702", "adresse": "60 AVENUE FELIX FAURE", "arrondt": 15, "regime": "MIXTE", "acces_pmr": "Oui", "tarif": "2 10U 50 MIX sept22", "zoneres": "15W", "paiement": "CB + CB sans contact", "geo_point_2d": { "lon": 2.2864070003787509, "lat": 48.840596000089064 }, "tarifhor_voiture": 4.0, "tarifhor_2r": 2.0, "lon": 2.2864070003787509, "lat": 48.840596000089064, "value": 57 }, "geometry": { "type": "Point", "coordinates": [ 254521.663028338603908, 6247857.025848986580968 ] } },
{ "type": "Feature", "properties": { "numhoro": "16760401", "adresse": "67 RUE DE CHABROL", "arrondt": 10, "regime": "ROTATIF", "acces_pmr": "Non", "tarif": "1 10U 75 ROT sept22", "zoneres": null, "paiement": "CB + Paris Carte", "geo_point_2d": { "lon": 2.3504139997752875, "lat": 48.877195000172733 }, "tarifhor_voiture": 6.0, "tarifhor_2r": 3.0, "lon": 2.3504139997752875, "lat": 48.877195000172733, "value": 46 }, "geometry": { "type": "Point", "coordinates": [ 261646.889608366444008, 6254049.585728351958096 ] } },
{ "type": "Feature", "properties": { "numhoro": "22520401", "adresse": "65 RUE COMPANS", "arrondt": 19, "regime": "MIXTE", "acces_pmr": "Oui", "tarif": "2 10U 50 MIX sept22", "zoneres": "19L", "paiement": "CB + CB sans contact", "geo_point_2d": { "lon": 2.3918380002694244, "lat": 48.879262000250982 }, "tarifhor_voiture": 4.0, "tarifhor_2r": 2.0, "lon": 2.3918380002694244, "lat": 48.879262000250982, "value": 23 }, "geometry": { "type": "Point", "coordinates": [ 266258.188249994069338, 6254399.457785651087761 ] } },
{ "type": "Feature", "properties": { "numhoro": "10260204", "adresse": "12 RUE DES BLUETS", "arrondt": 11, "regime": "MIXTE", "acces_pmr": "Oui", "tarif": "1 10U 75 MIX sept22", "zoneres": "11F", "paiement": "CB + CB sans contact", "geo_point_2d": { "lon": 2.3826449994880416, "lat": 48.864573999993915 }, "tarifhor_voiture": 6.0, "tarifhor_2r": 3.0, "lon": 2.3826449994880416, "lat": 48.864573999993915, "value": 26 }, "geometry": { "type": "Point", "coordinates": [ 265234.828084148350172, 6251913.597833822481334 ] } },
{ "type": "Feature", "properties": { "numhoro": "99071602", "adresse": "138 BOULEVARD VOLTAIRE", "arrondt": 11, "regime": "ROTATIF", "acces_pmr": "Non", "tarif": "1 10U 75 ROT sept22", "zoneres": null, "paiement": "CB + Paris Carte", "geo_point_2d": { "lon": 2.3815729996307398, "lat": 48.856766000232348 }, "tarifhor_voiture": 6.0, "tarifhor_2r": 3.0, "lon": 2.3815729996307398, "lat": 48.856766000232348, "value": 10 }, "geometry": { "type": "Point", "coordinates": [ 265115.493605903058778, 6250592.435580400750041 ] } },
{ "type": "Feature", "properties": { "numhoro": "99070201", "adresse": "15 BOULEVARD VOLTAIRE", "arrondt": 11, "regime": "ROTATIF", "acces_pmr": "Oui", "tarif": "1 10U 75 ROT sept22", "zoneres": null, "paiement": "CB + CB sans contact", "geo_point_2d": { "lon": 2.3672060004827715, "lat": 48.865643000098594 }, "tarifhor_voiture": 6.0, "tarifhor_2r": 3.0, "lon": 2.3672060004827715, "lat": 48.865643000098594, "value": 19 }, "geometry": { "type": "Point", "coordinates": [ 263516.166576523799449, 6252094.495360005646944 ] } },
{ "type": "Feature", "properties": { "numhoro": "25990101", "adresse": "15 RUE DAVAL", "arrondt": 11, "regime": "ROTATIF", "acces_pmr": "Non", "tarif": "1 10U 75 ROT sept22", "zoneres": null, "paiement": "CB + Paris Carte", "geo_point_2d": { "lon": 2.3709779998797513, "lat": 48.854764999670827 }, "tarifhor_voiture": 6.0, "tarifhor_2r": 3.0, "lon": 2.3709779998797513, "lat": 48.854764999670827, "value": 96 }, "geometry": { "type": "Point", "coordinates": [ 263936.063628668198362, 6250253.886980008333921 ] } },
{ "type": "Feature", "properties": { "numhoro": "29170102", "adresse": "7 terre-plein vis-à-vis BOULEVARD DE DOUAUMONT", "arrondt": 17, "regime": "MIXTE", "acces_pmr": "Oui", "tarif": "2 10U 50 MIX sept22", "zoneres": "17T", "paiement": "CB + CB sans contact", "geo_point_2d": { "lon": 2.3090550003251828, "lat": 48.896435999623229 }, "tarifhor_voiture": 4.0, "tarifhor_2r": 2.0, "lon": 2.3090550003251828, "lat": 48.896435999623229, "value": 20 }, "geometry": { "type": "Point", "coordinates": [ 257042.826849861477967, 6257306.984785913489759 ] } },
{ "type": "Feature", "properties": { "numhoro": "89391002", "adresse": "70 BOULEVARD SERURIER", "arrondt": 19, "regime": "MIXTE", "acces_pmr": "Oui", "tarif": "2 10U 50 MIX sept22", "zoneres": "19P", "paiement": "CB + CB sans contact", "geo_point_2d": { "lon": 2.3963253694243232, "lat": 48.881717020358323 }, "tarifhor_voiture": 4.0, "tarifhor_2r": 2.0, "lon": 2.3963253694243232, "lat": 48.881717020358323, "value": 9 }, "geometry": { "type": "Point", "coordinates": [ 266757.719899318821263, 6254815.027079884894192 ] } },
{ "type": "Feature", "properties": { "numhoro": "70670401", "adresse": "19 AVENUE PARMENTIER", "arrondt": 11, "regime": "MIXTE", "acces_pmr": "Non", "tarif": "1 10U 75 MIX sept22", "zoneres": "11H", "paiement": "CB + Paris Carte", "geo_point_2d": { "lon": 2.3781250005617558, "lat": 48.860616999901723 }, "tarifhor_voiture": 6.0, "tarifhor_2r": 3.0, "lon": 2.3781250005617558, "lat": 48.860616999901723, "value": 99 }, "geometry": { "type": "Point", "coordinates": [ 264731.664105288102292, 6251244.022983081638813 ] } },
{ "type": "Feature", "properties": { "numhoro": "8810306", "adresse": "74 terre-plein RUE DE BERCY", "arrondt": 12, "regime": "MIXTE", "acces_pmr": "Oui", "tarif": "2 10U 50 MIX sept22", "zoneres": "12F", "paiement": "CB + CB sans contact", "geo_point_2d": { "lon": 2.3820731296093021, "lat": 48.837996840156777 }, "tarifhor_voiture": 4.0, "tarifhor_2r": 2.0, "lon": 2.3820731296093021, "lat": 48.837996840156777, "value": 57 }, "geometry": { "type": "Point", "coordinates": [ 265171.167820447066333, 6247417.419475084170699 ] } },
{ "type": "Feature", "properties": { "numhoro": "55951201", "adresse": "75 RUE LEPIC", "arrondt": 18, "regime": "MIXTE", "acces_pmr": "Oui", "tarif": "2 10U 50 MIX sept22", "zoneres": "18F", "paiement": "CB + CB sans contact", "geo_point_2d": { "lon": 2.3366839997805413, "lat": 48.887357999735357 }, "tarifhor_voiture": 4.0, "tarifhor_2r": 2.0, "lon": 2.3366839997805413, "lat": 48.887357999735357, "value": 20 }, "geometry": { "type": "Point", "coordinates": [ 260118.47300035963417, 6255769.971424379386008 ] } },
{ "type": "Feature", "properties": { "numhoro": "51070106", "adresse": "22 RUE JULES VALLES", "arrondt": 11, "regime": "MIXTE", "acces_pmr": "Non", "tarif": "1 10U 75 MIX sept22", "zoneres": "11K", "paiement": "CB + Paris Carte", "geo_point_2d": { "lon": 2.3850230001642929, "lat": 48.854195999686546 }, "tarifhor_voiture": 6.0, "tarifhor_2r": 3.0, "lon": 2.3850230001642929, "lat": 48.854195999686546, "value": 90 }, "geometry": { "type": "Point", "coordinates": [ 265499.545908534724731, 6250157.620538405142725 ] } },
{ "type": "Feature", "properties": { "numhoro": "43100701", "adresse": "79 BOULEVARD DE GRENELLE", "arrondt": 15, "regime": "ROTATIF", "acces_pmr": "Oui", "tarif": "2 10U 50 ROT sept22", "zoneres": null, "paiement": "CB + CB sans contact", "geo_point_2d": { "lon": 2.2946720002569521, "lat": 48.850280000313205 }, "tarifhor_voiture": 4.0, "tarifhor_2r": 2.0, "lon": 2.2946720002569521, "lat": 48.850280000313205, "value": 84 }, "geometry": { "type": "Point", "coordinates": [ 255441.718606186419493, 6249495.120625750161707 ] } },
{ "type": "Feature", "properties": { "numhoro": "89690202", "adresse": "8 AVENUE DE LA SIBELLE", "arrondt": 14, "regime": "MIXTE", "acces_pmr": "Oui", "tarif": "2 10U 50 MIX sept22", "zoneres": "14H", "paiement": "CB + CB sans contact", "geo_point_2d": { "lon": 2.3387100005962673, "lat": 48.82652300013811 }, "tarifhor_voiture": 4.0, "tarifhor_2r": 2.0, "lon": 2.3387100005962673, "lat": 48.82652300013811, "value": 46 }, "geometry": { "type": "Point", "coordinates": [ 260344.00637951301178, 6245477.075313796289265 ] } },
{ "type": "Feature", "properties": { "numhoro": "86000202", "adresse": "8 QUAI SAINT EXUPERY", "arrondt": 16, "regime": "MIXTE", "acces_pmr": "Non", "tarif": "2 10U 50 MIX sept22", "zoneres": "16Z", "paiement": "CB + Paris Carte", "geo_point_2d": { "lon": 2.2653779993797434, "lat": 48.838087000331569 }, "tarifhor_voiture": 4.0, "tarifhor_2r": 2.0, "lon": 2.2653779993797434, "lat": 48.838087000331569, "value": 2 }, "geometry": { "type": "Point", "coordinates": [ 252180.725345237820875, 6247432.66824618447572 ] } },
{ "type": "Feature", "properties": { "numhoro": "93440102", "adresse": "8 RUE DE TOMBOUCTOU", "arrondt": 18, "regime": "MIXTE", "acces_pmr": "Non", "tarif": "2 10U 50 MIX sept22", "zoneres": "18H", "paiement": "CB + Paris Carte", "geo_point_2d": { "lon": 2.3565279998240474, "lat": 48.884609999638947 }, "tarifhor_voiture": 4.0, "tarifhor_2r": 2.0, "lon": 2.3565279998240474, "lat": 48.884609999638947, "value": 100 }, "geometry": { "type": "Point", "coordinates": [ 262327.496980504423846, 6255304.757340412586927 ] } },
{ "type": "Feature", "properties": { "numhoro": "65470302", "adresse": "26 RUE MORAND", "arrondt": 11, "regime": "MIXTE", "acces_pmr": "Non", "tarif": "1 10U 75 MIX sept22", "zoneres": "11E", "paiement": "CB + Paris Carte", "geo_point_2d": { "lon": 2.3759139999602152, "lat": 48.869384999671844 }, "tarifhor_voiture": 6.0, "tarifhor_2r": 3.0, "lon": 2.3759139999602152, "lat": 48.869384999671844, "value": 7 }, "geometry": { "type": "Point", "coordinates": [ 264485.536644181003794, 6252727.751618293114007 ] } },
{ "type": "Feature", "properties": { "numhoro": "52180102", "adresse": "8 RUE LACAZE", "arrondt": 14, "regime": "MIXTE", "acces_pmr": "Non", "tarif": "2 10U 50 MIX sept22", "zoneres": "14J", "paiement": "CB + Paris Carte", "geo_point_2d": { "lon": 2.3306980001339528, "lat": 48.824939000305584 }, "tarifhor_voiture": 4.0, "tarifhor_2r": 2.0, "lon": 2.3306980001339528, "lat": 48.824939000305584, "value": 71 }, "geometry": { "type": "Point", "coordinates": [ 259452.114567812677706, 6245209.239579916931689 ] } },
{ "type": "Feature", "properties": { "numhoro": "89310101", "adresse": "8 vis-à-vis RUE DU SERGENT MAGINOT", "arrondt": 16, "regime": "MIXTE", "acces_pmr": "Non", "tarif": "2 10U 50 MIX sept22", "zoneres": "16X", "paiement": "CB + Paris Carte", "geo_point_2d": { "lon": 2.2552920005448116, "lat": 48.840455000396489 }, "tarifhor_voiture": 4.0, "tarifhor_2r": 2.0, "lon": 2.2552920005448116, "lat": 48.840455000396489, "value": 52 }, "geometry": { "type": "Point", "coordinates": [ 251057.95709079169319, 6247833.177418655715883 ] } },
{ "type": "Feature", "properties": { "numhoro": "36630501", "adresse": "80 vis-à-vis BOULEVARD FLANDRIN", "arrondt": 16, "regime": "MIXTE", "acces_pmr": "Non", "tarif": "2 10U 50 MIX sept22", "zoneres": "16J", "paiement": "CB + Paris Carte", "geo_point_2d": { "lon": 2.2749390000529783, "lat": 48.869723000157691 }, "tarifhor_voiture": 4.0, "tarifhor_2r": 2.0, "lon": 2.2749390000529783, "lat": 48.869723000157691, "value": 50 }, "geometry": { "type": "Point", "coordinates": [ 253245.051071656489512, 6252784.953562094829977 ] } },
{ "type": "Feature", "properties": { "numhoro": "66390602", "adresse": "82 BOULEVARD MURAT", "arrondt": 16, "regime": "MIXTE", "acces_pmr": "Non", "tarif": "2 10U 50 MIX sept22", "zoneres": "16X", "paiement": "CB + Paris Carte", "geo_point_2d": { "lon": 2.2560020001241936, "lat": 48.84112100030643 }, "tarifhor_voiture": 4.0, "tarifhor_2r": 2.0, "lon": 2.2560020001241936, "lat": 48.84112100030643, "value": 67 }, "geometry": { "type": "Point", "coordinates": [ 251136.99388243193971, 6247945.824016706086695 ] } },
{ "type": "Feature", "properties": { "numhoro": "59760803", "adresse": "83 bis RUE MANIN", "arrondt": 19, "regime": "MIXTE", "acces_pmr": "Oui", "tarif": "2 10U 50 MIX sept22", "zoneres": "19H", "paiement": "CB + CB sans contact", "geo_point_2d": { "lon": 2.3845930005753968, "lat": 48.88301400011391 }, "tarifhor_voiture": 4.0, "tarifhor_2r": 2.0, "lon": 2.3845930005753968, "lat": 48.88301400011391, "value": 69 }, "geometry": { "type": "Point", "coordinates": [ 265451.678573257522658, 6255034.579325900413096 ] } },
{ "type": "Feature", "properties": { "numhoro": "55030802", "adresse": "84 RUE LEMERCIER", "arrondt": 17, "regime": "MIXTE", "acces_pmr": "Oui", "tarif": "2 10U 50 MIX sept22", "zoneres": "17R", "paiement": "CB + CB sans contact", "geo_point_2d": { "lon": 2.3201020003979016, "lat": 48.88873900033019 }, "tarifhor_voiture": 4.0, "tarifhor_2r": 2.0, "lon": 2.3201020003979016, "lat": 48.88873900033019, "value": 66 }, "geometry": { "type": "Point", "coordinates": [ 258272.573272749781609, 6256003.773254437372088 ] } },
{ "type": "Feature", "properties": { "numhoro": "80761103", "adresse": "85 RUE REBEVAL", "arrondt": 19, "regime": "MIXTE", "acces_pmr": "Non", "tarif": "2 10U 50 MIX sept22", "zoneres": "19J", "paiement": "CB + Paris Carte", "geo_point_2d": { "lon": 2.3824190004517631, "lat": 48.874018000229746 }, "tarifhor_voiture": 4.0, "tarifhor_2r": 2.0, "lon": 2.3824190004517631, "lat": 48.874018000229746, "value": 47 }, "geometry": { "type": "Point", "coordinates": [ 265209.669986510067247, 6253511.857037860900164 ] } },
{ "type": "Feature", "properties": { "numhoro": "54070101", "adresse": "5 RUE LA VACQUERIE", "arrondt": 11, "regime": "MIXTE", "acces_pmr": "Non", "tarif": "1 10U 75 MIX sept22", "zoneres": "11J", "paiement": "CB + Paris Carte", "geo_point_2d": { "lon": 2.3852640004316874, "lat": 48.857620000102166 }, "tarifhor_voiture": 6.0, "tarifhor_2r": 3.0, "lon": 2.3852640004316874, "lat": 48.857620000102166, "value": 10 }, "geometry": { "type": "Point", "coordinates": [ 265526.373935582116246, 6250736.927646498195827 ] } },
{ "type": "Feature", "properties": { "numhoro": "73120101", "adresse": "5 RUE PETION", "arrondt": 11, "regime": "MIXTE", "acces_pmr": "Oui", "tarif": "1 10U 75 MIX sept22", "zoneres": "11J", "paiement": "CB + CB sans contact", "geo_point_2d": { "lon": 2.3817149999170422, "lat": 48.858399999761822 }, "tarifhor_voiture": 6.0, "tarifhor_2r": 3.0, "lon": 2.3817149999170422, "lat": 48.858399999761822, "value": 80 }, "geometry": { "type": "Point", "coordinates": [ 265131.301005466724746, 6250868.90143930632621 ] } },
{ "type": "Feature", "properties": { "numhoro": "70670801", "adresse": "53 AVENUE PARMENTIER", "arrondt": 11, "regime": "MIXTE", "acces_pmr": "Oui", "tarif": "1 10U 75 MIX sept22", "zoneres": "11H", "paiement": "CB + CB sans contact", "geo_point_2d": { "lon": 2.3758770002302296, "lat": 48.863247999781407 }, "tarifhor_voiture": 6.0, "tarifhor_2r": 3.0, "lon": 2.3758770002302296, "lat": 48.863247999781407, "value": 11 }, "geometry": { "type": "Point", "coordinates": [ 264481.417853079503402, 6251689.215799208730459 ] } },
{ "type": "Feature", "properties": { "numhoro": "1160902", "adresse": "88 AVENUE ALBERT BARTHOLOME", "arrondt": 15, "regime": "MIXTE", "acces_pmr": "Non", "tarif": "2 10U 50 MIX sept22", "zoneres": "15U", "paiement": "CB + Paris Carte", "geo_point_2d": { "lon": 2.3000939996806991, "lat": 48.827616999627459 }, "tarifhor_voiture": 4.0, "tarifhor_2r": 2.0, "lon": 2.3000939996806991, "lat": 48.827616999627459, "value": 30 }, "geometry": { "type": "Point", "coordinates": [ 256045.292821119335713, 6245662.062697937712073 ] } },
{ "type": "Feature", "properties": { "numhoro": "2120902", "adresse": "88 RUE D ALLERAY", "arrondt": 15, "regime": "MIXTE", "acces_pmr": "Oui", "tarif": "2 10U 50 MIX sept22", "zoneres": "15J", "paiement": "CB + CB sans contact", "geo_point_2d": { "lon": 2.3084529999371415, "lat": 48.836261999914313 }, "tarifhor_voiture": 4.0, "tarifhor_2r": 2.0, "lon": 2.3084529999371415, "lat": 48.836261999914313, "value": 10 }, "geometry": { "type": "Point", "coordinates": [ 256975.812473207362927, 6247124.011660326272249 ] } },
{ "type": "Feature", "properties": { "numhoro": "79860101", "adresse": "9 AVENUE RACHEL", "arrondt": 18, "regime": "MIXTE", "acces_pmr": "Non", "tarif": "2 10U 50 MIX sept22", "zoneres": "18F", "paiement": "CB + Paris Carte", "geo_point_2d": { "lon": 2.3306649998756881, "lat": 48.884958000417768 }, "tarifhor_voiture": 4.0, "tarifhor_2r": 2.0, "lon": 2.3306649998756881, "lat": 48.884958000417768, "value": 49 }, "geometry": { "type": "Point", "coordinates": [ 259448.440995866607409, 6255363.669630441814661 ] } },
{ "type": "Feature", "properties": { "numhoro": "8490201", "adresse": "9 RUE DE BELLOY", "arrondt": 16, "regime": "MIXTE", "acces_pmr": "Oui", "tarif": "2 10U 50 MIX sept22", "zoneres": "16I", "paiement": "CB + CB sans contact", "geo_point_2d": { "lon": 2.292117999386091, "lat": 48.868720999977896 }, "tarifhor_voiture": 4.0, "tarifhor_2r": 2.0, "lon": 2.292117999386091, "lat": 48.868720999977896, "value": 6 }, "geometry": { "type": "Point", "coordinates": [ 255157.408529756590724, 6252615.379907405935228 ] } },
{ "type": "Feature", "properties": { "numhoro": "33520103", "adresse": "9 RUE ERNEST RENAN", "arrondt": 15, "regime": "MIXTE", "acces_pmr": "Non", "tarif": "2 10U 50 MIX sept22", "zoneres": "15H", "paiement": "CB + Paris Carte", "geo_point_2d": { "lon": 2.3099490001990692, "lat": 48.843399999959829 }, "tarifhor_voiture": 4.0, "tarifhor_2r": 2.0, "lon": 2.3099490001990692, "lat": 48.843399999959829, "value": 42 }, "geometry": { "type": "Point", "coordinates": [ 257142.34646059179795, 6248331.303206440061331 ] } },
{ "type": "Feature", "properties": { "numhoro": "49150103", "adresse": "9 RUE JEAN MARIDOR", "arrondt": 15, "regime": "MIXTE", "acces_pmr": "Oui", "tarif": "2 10U 50 MIX sept22", "zoneres": "15W", "paiement": "CB + CB sans contact", "geo_point_2d": { "lon": 2.2858399993411029, "lat": 48.839316000433946 }, "tarifhor_voiture": 4.0, "tarifhor_2r": 2.0, "lon": 2.2858399993411029, "lat": 48.839316000433946, "value": 97 }, "geometry": { "type": "Point", "coordinates": [ 254458.544761548371753, 6247640.531508016400039 ] } },
{ "type": "Feature", "properties": { "numhoro": "19661101", "adresse": "79 RUE DU CHEMIN VERT", "arrondt": 11, "regime": "MIXTE", "acces_pmr": "Non", "tarif": "1 10U 75 MIX sept22", "zoneres": "11F", "paiement": "CB + Paris Carte", "geo_point_2d": { "lon": 2.3794759993906984, "lat": 48.860622000017365 }, "tarifhor_voiture": 6.0, "tarifhor_2r": 3.0, "lon": 2.3794759993906984, "lat": 48.860622000017365, "value": 87 }, "geometry": { "type": "Point", "coordinates": [ 264882.056606988306157, 6251244.869032975286245 ] } },
{ "type": "Feature", "properties": { "numhoro": "3170202", "adresse": "9 vis-à-vis RUE ANDRE BRECHET", "arrondt": 17, "regime": "MIXTE", "acces_pmr": "Oui", "tarif": "2 10U 50 MIX sept22", "zoneres": "17U", "paiement": "CB + CB sans contact", "geo_point_2d": { "lon": 2.3279130002150534, "lat": 48.899168999620201 }, "tarifhor_voiture": 4.0, "tarifhor_2r": 2.0, "lon": 2.3279130002150534, "lat": 48.899168999620201, "value": 88 }, "geometry": { "type": "Point", "coordinates": [ 259142.089794981468003, 6257769.768857788294554 ] } },
{ "type": "Feature", "properties": { "numhoro": "37170802", "adresse": "86 RUE DE LA FONTAINE AU ROI", "arrondt": 11, "regime": "MIXTE", "acces_pmr": "Oui", "tarif": "1 10U 75 MIX sept22", "zoneres": "11E", "paiement": "CB + CB sans contact", "geo_point_2d": { "lon": 2.3768280004452476, "lat": 48.868948000372242 }, "tarifhor_voiture": 6.0, "tarifhor_2r": 3.0, "lon": 2.3768280004452476, "lat": 48.868948000372242, "value": 67 }, "geometry": { "type": "Point", "coordinates": [ 264587.282712759566493, 6252653.796056581661105 ] } },
{ "type": "Feature", "properties": { "numhoro": "24430603", "adresse": "91 RUE DE CRIMEE", "arrondt": 19, "regime": "MIXTE", "acces_pmr": "Non", "tarif": "2 10U 50 MIX sept22", "zoneres": "19H", "paiement": "CB + Paris Carte", "geo_point_2d": { "lon": 2.3845900893763465, "lat": 48.883789750403473 }, "tarifhor_voiture": 4.0, "tarifhor_2r": 2.0, "lon": 2.3845900893763465, "lat": 48.883789750403473, "value": 16 }, "geometry": { "type": "Point", "coordinates": [ 265451.354500061599538, 6255165.900764853693545 ] } },
{ "type": "Feature", "properties": { "numhoro": "45670404", "adresse": "92 AVENUE HENRI MARTIN", "arrondt": 16, "regime": "MIXTE", "acces_pmr": "Oui", "tarif": "2 10U 50 MIX sept22", "zoneres": "16L", "paiement": "CB + CB sans contact", "geo_point_2d": { "lon": 2.2697650001853735, "lat": 48.863316000230306 }, "tarifhor_voiture": 4.0, "tarifhor_2r": 2.0, "lon": 2.2697650001853735, "lat": 48.863316000230306, "value": 48 }, "geometry": { "type": "Point", "coordinates": [ 252669.084041030291701, 6251700.722499709576368 ] } },
{ "type": "Feature", "properties": { "numhoro": "23871501", "adresse": "97 RUE DE COURCELLES", "arrondt": 17, "regime": "ROTATIF", "acces_pmr": "Non", "tarif": "2 10U 50 ROT sept22", "zoneres": null, "paiement": "CB + Paris Carte", "geo_point_2d": { "lon": 2.3015120003314302, "lat": 48.880617999625883 }, "tarifhor_voiture": 4.0, "tarifhor_2r": 2.0, "lon": 2.3015120003314302, "lat": 48.880617999625883, "value": 77 }, "geometry": { "type": "Point", "coordinates": [ 256203.143931503291242, 6254628.989719202741981 ] } },
{ "type": "Feature", "properties": { "numhoro": "9131305", "adresse": "99 BOULEVARD BERTHIER", "arrondt": 17, "regime": "MIXTE", "acces_pmr": "Oui", "tarif": "2 10U 50 MIX sept22", "zoneres": "17N", "paiement": "CB + CB sans contact", "geo_point_2d": { "lon": 2.2939489993229332, "lat": 48.885601999665589 }, "tarifhor_voiture": 4.0, "tarifhor_2r": 2.0, "lon": 2.2939489993229332, "lat": 48.885601999665589, "value": 40 }, "geometry": { "type": "Point", "coordinates": [ 255361.234510368376505, 6255472.691934620030224 ] } },
{ "type": "Feature", "properties": { "numhoro": "11190505", "adresse": "47 AVENUE BOSQUET", "arrondt": 7, "regime": "MIXTE", "acces_pmr": "Oui", "tarif": "1 10U 75 MIX sept22", "zoneres": "7J", "paiement": "CB + CB sans contact", "geo_point_2d": { "lon": 2.3043009997227895, "lat": 48.857462000162457 }, "tarifhor_voiture": 6.0, "tarifhor_2r": 3.0, "lon": 2.3043009997227895, "lat": 48.857462000162457, "value": 6 }, "geometry": { "type": "Point", "coordinates": [ 256513.613923572149361, 6250710.194742606952786 ] } },
{ "type": "Feature", "properties": { "numhoro": "48360401", "adresse": "25 bis RUE JASMIN", "arrondt": 16, "regime": "MIXTE", "acces_pmr": "Oui", "tarif": "2 10U 50 MIX sept22", "zoneres": "16S", "paiement": "CB + CB sans contact", "geo_point_2d": { "lon": 2.2656560004652646, "lat": 48.851501999618172 }, "tarifhor_voiture": 4.0, "tarifhor_2r": 2.0, "lon": 2.2656560004652646, "lat": 48.851501999618172, "value": 83 }, "geometry": { "type": "Point", "coordinates": [ 252211.6722845180484, 6249701.850140986964107 ] } },
{ "type": "Feature", "properties": { "numhoro": "95880501", "adresse": "59 RUE VANEAU", "arrondt": 7, "regime": "MIXTE", "acces_pmr": "Oui", "tarif": "1 10U 75 MIX sept22", "zoneres": "7N", "paiement": "CB + CB sans contact", "geo_point_2d": { "lon": 2.3197529994331334, "lat": 48.850235999577819 }, "tarifhor_voiture": 6.0, "tarifhor_2r": 3.0, "lon": 2.3197529994331334, "lat": 48.850235999577819, "value": 100 }, "geometry": { "type": "Point", "coordinates": [ 258233.722663065447705, 6249487.676975281909108 ] } },
{ "type": "Feature", "properties": { "numhoro": "38590104", "adresse": "27 BOULEVARD CARNOT", "arrondt": 12, "regime": "MIXTE", "acces_pmr": "Non", "tarif": "2 10U 50 MIX sept22", "zoneres": "12R", "paiement": "CB + Paris Carte", "geo_point_2d": { "lon": 2.4132529997922476, "lat": 48.84444499979881 }, "tarifhor_voiture": 4.0, "tarifhor_2r": 2.0, "lon": 2.4132529997922476, "lat": 48.84444499979881, "value": 35 }, "geometry": { "type": "Point", "coordinates": [ 268642.095092212897725, 6248508.064558111131191 ] } },
{ "type": "Feature", "properties": { "numhoro": "21190302", "adresse": "28 SQUARE DE CLIGNANCOURT", "arrondt": 18, "regime": "MIXTE", "acces_pmr": "Non", "tarif": "2 10U 50 MIX sept22", "zoneres": "18M", "paiement": "CB + Paris Carte", "geo_point_2d": { "lon": 2.3466029998442646, "lat": 48.893540000414248 }, "tarifhor_voiture": 4.0, "tarifhor_2r": 2.0, "lon": 2.3466029998442646, "lat": 48.893540000414248, "value": 29 }, "geometry": { "type": "Point", "coordinates": [ 261222.651036631781608, 6256816.6273576291278 ] } },
{ "type": "Feature", "properties": { "numhoro": "6200804", "adresse": "92 RUE DU BAC", "arrondt": 7, "regime": "MIXTE", "acces_pmr": "Oui", "tarif": "1 10U 75 MIX sept22", "zoneres": "7M", "paiement": "CB + CB sans contact", "geo_point_2d": { "lon": 2.3239879996471928, "lat": 48.854497999877808 }, "tarifhor_voiture": 6.0, "tarifhor_2r": 3.0, "lon": 2.3239879996471928, "lat": 48.854497999877808, "value": 95 }, "geometry": { "type": "Point", "coordinates": [ 258705.160730403935304, 6250208.71439965814352 ] } },
{ "type": "Feature", "properties": { "numhoro": "28460104", "adresse": "12 RUE DU DOCTEUR LANCEREAUX", "arrondt": 8, "regime": "MIXTE", "acces_pmr": "Oui", "tarif": "1 10U 75 MIX sept22", "zoneres": "8J", "paiement": "CB + CB sans contact", "geo_point_2d": { "lon": 2.3111419995290321, "lat": 48.876444000179973 }, "tarifhor_voiture": 6.0, "tarifhor_2r": 3.0, "lon": 2.3111419995290321, "lat": 48.876444000179973, "value": 71 }, "geometry": { "type": "Point", "coordinates": [ 257275.150538519985275, 6253922.470826830714941 ] } },
{ "type": "Feature", "properties": { "numhoro": "63470101", "adresse": "3 RUE MIGNET", "arrondt": 16, "regime": "MIXTE", "acces_pmr": "Oui", "tarif": "2 10U 50 MIX sept22", "zoneres": "16U", "paiement": "CB + CB sans contact", "geo_point_2d": { "lon": 2.2688149996623168, "lat": 48.848688000245453 }, "tarifhor_voiture": 4.0, "tarifhor_2r": 2.0, "lon": 2.2688149996623168, "lat": 48.848688000245453, "value": 11 }, "geometry": { "type": "Point", "coordinates": [ 252563.330466550251003, 6249225.804470835253596 ] } },
{ "type": "Feature", "properties": { "numhoro": "65160102", "adresse": "3 vis-à-vis BOULEVARD DE MONTMORENCY", "arrondt": 16, "regime": "MIXTE", "acces_pmr": "Non", "tarif": "2 10U 50 MIX sept22", "zoneres": "16R", "paiement": "CB + Paris Carte", "geo_point_2d": { "lon": 2.2643909993523321, "lat": 48.855682000128958 }, "tarifhor_voiture": 4.0, "tarifhor_2r": 2.0, "lon": 2.2643909993523321, "lat": 48.855682000128958, "value": 74 }, "geometry": { "type": "Point", "coordinates": [ 252070.853004773467546, 6250409.032294015400112 ] } },
{ "type": "Feature", "properties": { "numhoro": "5640102", "adresse": "3 vis-à-vis RUE AUGUSTE MIE", "arrondt": 14, "regime": "MIXTE", "acces_pmr": "Non", "tarif": "2 10U 50 MIX sept22", "zoneres": "14L", "paiement": "CB + Paris Carte", "geo_point_2d": { "lon": 2.3235679999285614, "lat": 48.837081000426849 }, "tarifhor_voiture": 4.0, "tarifhor_2r": 2.0, "lon": 2.3235679999285614, "lat": 48.837081000426849, "value": 47 }, "geometry": { "type": "Point", "coordinates": [ 258658.406575592554873, 6247262.525252589024603 ] } },
{ "type": "Feature", "properties": { "numhoro": "53880302", "adresse": "18 RUE DE LA TREMOILLE", "arrondt": 8, "regime": "MIXTE", "acces_pmr": "Non", "tarif": "1 10U 75 MIX sept22", "zoneres": "8E", "paiement": "CB + Paris Carte", "geo_point_2d": { "lon": 2.3031689999449108, "lat": 48.867079999881696 }, "tarifhor_voiture": 6.0, "tarifhor_2r": 3.0, "lon": 2.3031689999449108, "lat": 48.867079999881696, "value": 79 }, "geometry": { "type": "Point", "coordinates": [ 256387.600284720596392, 6252337.672337844967842 ] } },
{ "type": "Feature", "properties": { "numhoro": "91850201", "adresse": "19 RUE DE TEHERAN", "arrondt": 8, "regime": "MIXTE", "acces_pmr": "Oui", "tarif": "1 10U 75 MIX sept22", "zoneres": "8J", "paiement": "CB + CB sans contact", "geo_point_2d": { "lon": 2.3125169998431949, "lat": 48.87733999958445 }, "tarifhor_voiture": 6.0, "tarifhor_2r": 3.0, "lon": 2.3125169998431949, "lat": 48.87733999958445, "value": 67 }, "geometry": { "type": "Point", "coordinates": [ 257428.214873333141441, 6254074.128672681748867 ] } },
{ "type": "Feature", "properties": { "numhoro": "56300201", "adresse": "31 RUE LETORT", "arrondt": 18, "regime": "MIXTE", "acces_pmr": "Oui", "tarif": "2 10U 50 MIX sept22", "zoneres": "18S", "paiement": "CB + CB sans contact", "geo_point_2d": { "lon": 2.3432390006052541, "lat": 48.895245999776584 }, "tarifhor_voiture": 4.0, "tarifhor_2r": 2.0, "lon": 2.3432390006052541, "lat": 48.895245999776584, "value": 25 }, "geometry": { "type": "Point", "coordinates": [ 260848.17235431613517, 6257105.487762225791812 ] } },
{ "type": "Feature", "properties": { "numhoro": "81441006", "adresse": "32 bis AVENUE RENE COTY", "arrondt": 14, "regime": "MIXTE", "acces_pmr": "Oui", "tarif": "2 10U 50 MIX sept22", "zoneres": "14J", "paiement": "CB + CB sans contact", "geo_point_2d": { "lon": 2.3344549995121371, "lat": 48.828248000155689 }, "tarifhor_voiture": 4.0, "tarifhor_2r": 2.0, "lon": 2.3344549995121371, "lat": 48.828248000155689, "value": 61 }, "geometry": { "type": "Point", "coordinates": [ 259870.341825502808206, 6245768.762150158174336 ] } },
{ "type": "Feature", "properties": { "numhoro": "77700304", "adresse": "32 RUE POULET", "arrondt": 18, "regime": "MIXTE", "acces_pmr": "Non", "tarif": "2 10U 50 MIX sept22", "zoneres": "18H", "paiement": "CB + Paris Carte", "geo_point_2d": { "lon": 2.3508049994965972, "lat": 48.887914000065592 }, "tarifhor_voiture": 4.0, "tarifhor_2r": 2.0, "lon": 2.3508049994965972, "lat": 48.887914000065592, "value": 35 }, "geometry": { "type": "Point", "coordinates": [ 261690.415498242917238, 6255864.100871413946152 ] } },
{ "type": "Feature", "properties": { "numhoro": "34870105", "adresse": "33 RUE DE LA FAISANDERIE", "arrondt": 16, "regime": "MIXTE", "acces_pmr": "Oui", "tarif": "2 10U 50 MIX sept22", "zoneres": "16J", "paiement": "CB + CB sans contact", "geo_point_2d": { "lon": 2.2767479993803303, "lat": 48.869921000205565 }, "tarifhor_voiture": 4.0, "tarifhor_2r": 2.0, "lon": 2.2767479993803303, "lat": 48.869921000205565, "value": 79 }, "geometry": { "type": "Point", "coordinates": [ 253446.427955622697482, 6252818.462532496079803 ] } },
{ "type": "Feature", "properties": { "numhoro": "98040209", "adresse": "29 RUE VIGNON", "arrondt": 8, "regime": "MIXTE", "acces_pmr": "Oui", "tarif": "1 10U 75 MIX sept22", "zoneres": "8H", "paiement": "CB + CB sans contact", "geo_point_2d": { "lon": 2.3263920004478247, "lat": 48.871912000060163 }, "tarifhor_voiture": 6.0, "tarifhor_2r": 3.0, "lon": 2.3263920004478247, "lat": 48.871912000060163, "value": 22 }, "geometry": { "type": "Point", "coordinates": [ 258972.772875396884046, 6253155.421110796742141 ] } },
{ "type": "Feature", "properties": { "numhoro": "44580501", "adresse": "35 RUE HALLE", "arrondt": 14, "regime": "MIXTE", "acces_pmr": "Oui", "tarif": "2 10U 50 MIX sept22", "zoneres": "14L", "paiement": "CB + CB sans contact", "geo_point_2d": { "lon": 2.3317999998449168, "lat": 48.830615999604646 }, "tarifhor_voiture": 4.0, "tarifhor_2r": 2.0, "lon": 2.3317999998449168, "lat": 48.830615999604646, "value": 43 }, "geometry": { "type": "Point", "coordinates": [ 259574.788614491553744, 6246169.192568188533187 ] } },
{ "type": "Feature", "properties": { "numhoro": "89890501", "adresse": "35 RUE SINGER", "arrondt": 16, "regime": "MIXTE", "acces_pmr": "Oui", "tarif": "2 10U 50 MIX sept22", "zoneres": "16P", "paiement": "CB + CB sans contact", "geo_point_2d": { "lon": 2.2753420001223397, "lat": 48.856889000263529 }, "tarifhor_voiture": 4.0, "tarifhor_2r": 2.0, "lon": 2.2753420001223397, "lat": 48.856889000263529, "value": 84 }, "geometry": { "type": "Point", "coordinates": [ 253289.912834167480469, 6250613.246355081908405 ] } },
{ "type": "Feature", "properties": { "numhoro": "58000102", "adresse": "3 vis-à-vis RUE LOUIS MURAT", "arrondt": 8, "regime": "MIXTE", "acces_pmr": "Non", "tarif": "1 10U 75 MIX sept22", "zoneres": "8J", "paiement": "CB + Paris Carte", "geo_point_2d": { "lon": 2.3092229996127305, "lat": 48.876171999650495 }, "tarifhor_voiture": 6.0, "tarifhor_2r": 3.0, "lon": 2.3092229996127305, "lat": 48.876171999650495, "value": 87 }, "geometry": { "type": "Point", "coordinates": [ 257061.528445004922105, 6253876.432255174964666 ] } },
{ "type": "Feature", "properties": { "numhoro": "6390504", "adresse": "36 ter RUE BALARD", "arrondt": 15, "regime": "MIXTE", "acces_pmr": "Non", "tarif": "2 10U 50 MIX sept22", "zoneres": "15N", "paiement": "CB + Paris Carte", "geo_point_2d": { "lon": 2.2773930000016391, "lat": 48.842956999900991 }, "tarifhor_voiture": 4.0, "tarifhor_2r": 2.0, "lon": 2.2773930000016391, "lat": 48.842956999900991, "value": 4 }, "geometry": { "type": "Point", "coordinates": [ 253518.229096348135499, 6248256.371016984805465 ] } },
{ "type": "Feature", "properties": { "numhoro": "7200601", "adresse": "37 RUE DES BATIGNOLLES", "arrondt": 17, "regime": "ROTATIF", "acces_pmr": "Non", "tarif": "2 10U 50 ROT sept22", "zoneres": null, "paiement": "CB + Paris Carte", "geo_point_2d": { "lon": 2.320321000028553, "lat": 48.885248999879394 }, "tarifhor_voiture": 4.0, "tarifhor_2r": 2.0, "lon": 2.320321000028553, "lat": 48.885248999879394, "value": 86 }, "geometry": { "type": "Point", "coordinates": [ 258296.95220011784113, 6255412.932606998831034 ] } },
{ "type": "Feature", "properties": { "numhoro": "29600502", "adresse": "38 RUE DE LA DUEE", "arrondt": 20, "regime": "MIXTE", "acces_pmr": "Oui", "tarif": "2 10U 50 MIX sept22", "zoneres": "20M", "paiement": "CB + CB sans contact", "geo_point_2d": { "lon": 2.3976070002628824, "lat": 48.871913999920856 }, "tarifhor_voiture": 4.0, "tarifhor_2r": 2.0, "lon": 2.3976070002628824, "lat": 48.871913999920856, "value": 21 }, "geometry": { "type": "Point", "coordinates": [ 266900.390391652181279, 6253155.759575732983649 ] } },
{ "type": "Feature", "properties": { "numhoro": "86352802", "adresse": "418 RUE SAINT HONORE", "arrondt": 8, "regime": "ROTATIF", "acces_pmr": "Non", "tarif": "1 10U 75 ROT sept22", "zoneres": null, "paiement": "CB + Paris Carte", "geo_point_2d": { "lon": 2.3240240001785177, "lat": 48.868189000370741 }, "tarifhor_voiture": 6.0, "tarifhor_2r": 3.0, "lon": 2.3240240001785177, "lat": 48.868189000370741, "value": 47 }, "geometry": { "type": "Point", "coordinates": [ 258709.168291219335515, 6252525.348252057097852 ] } },
{ "type": "Feature", "properties": { "numhoro": "17660102", "adresse": "4 CITE DE LA CHAPELLE", "arrondt": 18, "regime": "MIXTE", "acces_pmr": "Oui", "tarif": "2 10U 50 MIX sept22", "zoneres": "18H", "paiement": "CB + CB sans contact", "geo_point_2d": { "lon": 2.3589399996624367, "lat": 48.887272000346726 }, "tarifhor_voiture": 4.0, "tarifhor_2r": 2.0, "lon": 2.3589399996624367, "lat": 48.887272000346726, "value": 16 }, "geometry": { "type": "Point", "coordinates": [ 262595.999574307410512, 6255755.412039265036583 ] } },
{ "type": "Feature", "properties": { "numhoro": "63870303", "adresse": "46 vis-à-vis RUE DE MIROMESNIL", "arrondt": 8, "regime": "MIXTE", "acces_pmr": "Oui", "tarif": "1 10U 75 MIX sept22", "zoneres": "8J", "paiement": "CB + CB sans contact", "geo_point_2d": { "lon": 2.3157300001967767, "lat": 48.874409999937008 }, "tarifhor_voiture": 6.0, "tarifhor_2r": 3.0, "lon": 2.3157300001967767, "lat": 48.874409999937008, "value": 13 }, "geometry": { "type": "Point", "coordinates": [ 257785.88443661245401, 6253578.20378814265132 ] } },
{ "type": "Feature", "properties": { "numhoro": "82910304", "adresse": "48 RUE DU ROCHER", "arrondt": 8, "regime": "MIXTE", "acces_pmr": "Non", "tarif": "1 10U 75 MIX sept22", "zoneres": "8K", "paiement": "CB + Paris Carte", "geo_point_2d": { "lon": 2.3205310005437596, "lat": 48.877815999988435 }, "tarifhor_voiture": 6.0, "tarifhor_2r": 3.0, "lon": 2.3205310005437596, "lat": 48.877815999988435, "value": 97 }, "geometry": { "type": "Point", "coordinates": [ 258320.329350536951097, 6254154.698130126111209 ] } },
{ "type": "Feature", "properties": { "numhoro": "62630202", "adresse": "4 RUE MENDELSSOHN", "arrondt": 20, "regime": "MIXTE", "acces_pmr": "Oui", "tarif": "2 10U 50 MIX sept22", "zoneres": "20J", "paiement": "CB + CB sans contact", "geo_point_2d": { "lon": 2.4106919998055405, "lat": 48.855632999865513 }, "tarifhor_voiture": 4.0, "tarifhor_2r": 2.0, "lon": 2.4106919998055405, "lat": 48.855632999865513, "value": 100 }, "geometry": { "type": "Point", "coordinates": [ 268357.005877771123778, 6250400.741974093951285 ] } },
{ "type": "Feature", "properties": { "numhoro": "31000102", "adresse": "4 ter PASSAGE DES ECOLIERS", "arrondt": 15, "regime": "MIXTE", "acces_pmr": "Non", "tarif": "2 10U 50 MIX sept22", "zoneres": "15L", "paiement": "CB + Paris Carte", "geo_point_2d": { "lon": 2.2918029995715532, "lat": 48.844830999794965 }, "tarifhor_voiture": 4.0, "tarifhor_2r": 2.0, "lon": 2.2918029995715532, "lat": 48.844830999794965, "value": 23 }, "geometry": { "type": "Point", "coordinates": [ 255122.342910802253755, 6248573.357253211550415 ] } },
{ "type": "Feature", "properties": { "numhoro": "17230302", "adresse": "40 RUE CHAMPIONNET", "arrondt": 18, "regime": "MIXTE", "acces_pmr": "Non", "tarif": "2 10U 50 MIX sept22", "zoneres": "18M", "paiement": "CB + Paris Carte", "geo_point_2d": { "lon": 2.3485210004128616, "lat": 48.895638999891673 }, "tarifhor_voiture": 4.0, "tarifhor_2r": 2.0, "lon": 2.3485210004128616, "lat": 48.895638999891673, "value": 91 }, "geometry": { "type": "Point", "coordinates": [ 261436.161883269174723, 6257172.032075203955173 ] } },
{ "type": "Feature", "properties": { "numhoro": "35180504", "adresse": "70 RUE DU FAUBOURG SAINT HONORE", "arrondt": 8, "regime": "ROTATIF", "acces_pmr": "Non", "tarif": "1 10U 75 ROT sept22", "zoneres": null, "paiement": "CB + Paris Carte", "geo_point_2d": { "lon": 2.318036999348378, "lat": 48.870177999992791 }, "tarifhor_voiture": 6.0, "tarifhor_2r": 3.0, "lon": 2.318036999348378, "lat": 48.870177999992791, "value": 53 }, "geometry": { "type": "Point", "coordinates": [ 258042.698407429241342, 6252861.956650357693434 ] } },
{ "type": "Feature", "properties": { "numhoro": "62671404", "adresse": "42 BOULEVARD DE MENILMONTANT", "arrondt": 20, "regime": "MIXTE", "acces_pmr": "Oui", "tarif": "2 10U 50 MIX sept22", "zoneres": "20G", "paiement": "CB + CB sans contact", "geo_point_2d": { "lon": 2.3889159997489307, "lat": 48.860529000394088 }, "tarifhor_voiture": 4.0, "tarifhor_2r": 2.0, "lon": 2.3889159997489307, "lat": 48.860529000394088, "value": 55 }, "geometry": { "type": "Point", "coordinates": [ 265932.912639955000486, 6251229.132946490310133 ] } },
{ "type": "Feature", "properties": { "numhoro": "16250204", "adresse": "42 RUE CAVENDISH", "arrondt": 19, "regime": "MIXTE", "acces_pmr": "Oui", "tarif": "2 10U 50 MIX sept22", "zoneres": "19H", "paiement": "CB + CB sans contact", "geo_point_2d": { "lon": 2.3790300003851725, "lat": 48.884333000023801 }, "tarifhor_voiture": 4.0, "tarifhor_2r": 2.0, "lon": 2.3790300003851725, "lat": 48.884333000023801, "value": 59 }, "geometry": { "type": "Point", "coordinates": [ 264832.408224798855372, 6255257.864974974654615 ] } },
{ "type": "Feature", "properties": { "numhoro": "76120202", "adresse": "8 RUE DE PONTHIEU", "arrondt": 8, "regime": "ROTATIF", "acces_pmr": "Non", "tarif": "1 10U 75 ROT sept22", "zoneres": null, "paiement": "CB + Paris Carte", "geo_point_2d": { "lon": 2.3105710003513322, "lat": 48.870428999992612 }, "tarifhor_voiture": 6.0, "tarifhor_2r": 3.0, "lon": 2.3105710003513322, "lat": 48.870428999992612, "value": 18 }, "geometry": { "type": "Point", "coordinates": [ 257211.587200815032702, 6252904.43559212423861 ] } },
{ "type": "Feature", "properties": { "numhoro": "64190802", "adresse": "86 RUE DE MONCEAU", "arrondt": 8, "regime": "MIXTE", "acces_pmr": "Oui", "tarif": "1 10U 75 MIX sept22", "zoneres": "8K", "paiement": "CB + CB sans contact", "geo_point_2d": { "lon": 2.3161909997283883, "lat": 48.880278000042217 }, "tarifhor_voiture": 6.0, "tarifhor_2r": 3.0, "lon": 2.3161909997283883, "lat": 48.880278000042217, "value": 74 }, "geometry": { "type": "Point", "coordinates": [ 257837.202669727412285, 6254571.436923892237246 ] } },
{ "type": "Feature", "properties": { "numhoro": "38320103", "adresse": "9 RUE FREDERIC BASTIAT", "arrondt": 8, "regime": "MIXTE", "acces_pmr": "Oui", "tarif": "1 10U 75 MIX sept22", "zoneres": "8F", "paiement": "CB + CB sans contact", "geo_point_2d": { "lon": 2.3071539998455304, "lat": 48.872822000053745 }, "tarifhor_voiture": 6.0, "tarifhor_2r": 3.0, "lon": 2.3071539998455304, "lat": 48.872822000053745, "value": 20 }, "geometry": { "type": "Point", "coordinates": [ 256831.208444468793459, 6253309.434780429117382 ] } },
{ "type": "Feature", "properties": { "numhoro": "7190201", "adresse": "9 terre-plein BOULEVARD DES BATIGNOLLES", "arrondt": 8, "regime": "ROTATIF", "acces_pmr": "Oui", "tarif": "1 10U 75 ROT sept22", "zoneres": null, "paiement": "CB + CB sans contact", "geo_point_2d": { "lon": 2.3259680000450005, "lat": 48.883151000317284 }, "tarifhor_voiture": 6.0, "tarifhor_2r": 3.0, "lon": 2.3259680000450005, "lat": 48.883151000317284, "value": 60 }, "geometry": { "type": "Point", "coordinates": [ 258925.573366458382225, 6255057.771001359447837 ] } },
{ "type": "Feature", "properties": { "numhoro": "23080301", "adresse": "45 RUE COPERNIC", "arrondt": 16, "regime": "MIXTE", "acces_pmr": "Non", "tarif": "2 10U 50 MIX sept22", "zoneres": "16J", "paiement": "CB + Paris Carte", "geo_point_2d": { "lon": 2.2864679998230462, "lat": 48.869489999881125 }, "tarifhor_voiture": 4.0, "tarifhor_2r": 2.0, "lon": 2.2864679998230462, "lat": 48.869489999881125, "value": 32 }, "geometry": { "type": "Point", "coordinates": [ 254528.453455416194629, 6252745.52142140828073 ] } },
{ "type": "Feature", "properties": { "numhoro": "83930106", "adresse": "10 RUE ROUGEMONT", "arrondt": 9, "regime": "MIXTE", "acces_pmr": "Oui", "tarif": "1 10U 75 MIX sept22", "zoneres": "9G", "paiement": "CB + CB sans contact", "geo_point_2d": { "lon": 2.3460510005565642, "lat": 48.871842000261005 }, "tarifhor_voiture": 6.0, "tarifhor_2r": 3.0, "lon": 2.3460510005565642, "lat": 48.871842000261005, "value": 71 }, "geometry": { "type": "Point", "coordinates": [ 261161.202757006714819, 6253143.574055376462638 ] } },
{ "type": "Feature", "properties": { "numhoro": "22680203", "adresse": "13 RUE CONDORCET", "arrondt": 9, "regime": "MIXTE", "acces_pmr": "Oui", "tarif": "1 10U 75 MIX sept22", "zoneres": "9F", "paiement": "CB + CB sans contact", "geo_point_2d": { "lon": 2.3472080005459515, "lat": 48.879571000286234 }, "tarifhor_voiture": 6.0, "tarifhor_2r": 3.0, "lon": 2.3472080005459515, "lat": 48.879571000286234, "value": 14 }, "geometry": { "type": "Point", "coordinates": [ 261289.999406673130579, 6254451.762111560441554 ] } },
{ "type": "Feature", "properties": { "numhoro": "29740305", "adresse": "47 RUE DUHESME", "arrondt": 18, "regime": "MIXTE", "acces_pmr": "Non", "tarif": "2 10U 50 MIX sept22", "zoneres": "18N", "paiement": "CB + Paris Carte", "geo_point_2d": { "lon": 2.3405270000666847, "lat": 48.891901000437493 }, "tarifhor_voiture": 4.0, "tarifhor_2r": 2.0, "lon": 2.3405270000666847, "lat": 48.891901000437493, "value": 50 }, "geometry": { "type": "Point", "coordinates": [ 260546.273835331521695, 6256539.120596208609641 ] } },
{ "type": "Feature", "properties": { "numhoro": "13980402", "adresse": "48 RUE DE BUZENVAL", "arrondt": 20, "regime": "MIXTE", "acces_pmr": "Oui", "tarif": "2 10U 50 MIX sept22", "zoneres": "20H", "paiement": "CB + CB sans contact", "geo_point_2d": { "lon": 2.4016250002368715, "lat": 48.851401000429867 }, "tarifhor_voiture": 4.0, "tarifhor_2r": 2.0, "lon": 2.4016250002368715, "lat": 48.851401000429867, "value": 31 }, "geometry": { "type": "Point", "coordinates": [ 267347.672102764074225, 6249684.763595280237496 ] } },
{ "type": "Feature", "properties": { "numhoro": "34870402", "adresse": "48 RUE DE LA FAISANDERIE", "arrondt": 16, "regime": "MIXTE", "acces_pmr": "Non", "tarif": "2 10U 50 MIX sept22", "zoneres": "16J", "paiement": "CB + Paris Carte", "geo_point_2d": { "lon": 2.275751999522921, "lat": 48.868672999987723 }, "tarifhor_voiture": 4.0, "tarifhor_2r": 2.0, "lon": 2.275751999522921, "lat": 48.868672999987723, "value": 6 }, "geometry": { "type": "Point", "coordinates": [ 253335.553758665744681, 6252607.256706910207868 ] } },
{ "type": "Feature", "properties": { "numhoro": "74790303", "adresse": "19 RUE PIERRE SEMARD", "arrondt": 9, "regime": "MIXTE", "acces_pmr": "Oui", "tarif": "1 10U 75 MIX sept22", "zoneres": "9G", "paiement": "CB + CB sans contact", "geo_point_2d": { "lon": 2.3478589997127566, "lat": 48.878608999780965 }, "tarifhor_voiture": 6.0, "tarifhor_2r": 3.0, "lon": 2.3478589997127566, "lat": 48.878608999780965, "value": 5 }, "geometry": { "type": "Point", "coordinates": [ 261362.468302428693278, 6254288.925691591575742 ] } },
{ "type": "Feature", "properties": { "numhoro": "50100401", "adresse": "48 vis-à-vis RUE JOSEPH DE MAISTRE", "arrondt": 18, "regime": "MIXTE", "acces_pmr": "Non", "tarif": "2 10U 50 MIX sept22", "zoneres": "18E", "paiement": "CB + Paris Carte", "geo_point_2d": { "lon": 2.3314260002497487, "lat": 48.889612000051017 }, "tarifhor_voiture": 4.0, "tarifhor_2r": 2.0, "lon": 2.3314260002497487, "lat": 48.889612000051017, "value": 74 }, "geometry": { "type": "Point", "coordinates": [ 259533.155170000507496, 6256151.574445525184274 ] } },
{ "type": "Feature", "properties": { "numhoro": "59970603", "adresse": "49 AVENUE MARCEAU", "arrondt": 16, "regime": "MIXTE", "acces_pmr": "Oui", "tarif": "2 10U 50 MIX sept22", "zoneres": "16G", "paiement": "CB + CB sans contact", "geo_point_2d": { "lon": 2.2982299997545925, "lat": 48.869243999682723 }, "tarifhor_voiture": 4.0, "tarifhor_2r": 2.0, "lon": 2.2982299997545925, "lat": 48.869243999682723, "value": 2 }, "geometry": { "type": "Point", "coordinates": [ 255837.793298506498104, 6252703.889419314451516 ] } },
{ "type": "Feature", "properties": { "numhoro": "840102", "adresse": "2 PLACE ADRIEN OUDIN", "arrondt": 9, "regime": "ROTATIF", "acces_pmr": "Non", "tarif": "1 10U 75 ROT sept22", "zoneres": null, "paiement": "CB + Paris Carte", "geo_point_2d": { "lon": 2.335519999523191, "lat": 48.872889000314274 }, "tarifhor_voiture": 6.0, "tarifhor_2r": 3.0, "lon": 2.335519999523191, "lat": 48.872889000314274, "value": 38 }, "geometry": { "type": "Point", "coordinates": [ 259988.897084428172093, 6253320.774403306655586 ] } },
{ "type": "Feature", "properties": { "numhoro": "36960601", "adresse": "5 AVENUE FOCH", "arrondt": 16, "regime": "MIXTE", "acces_pmr": "Oui", "tarif": "2 10U 50 MIX sept22", "zoneres": "16F", "paiement": "CB + CB sans contact", "geo_point_2d": { "lon": 2.2918279993563759, "lat": 48.873123999667513 }, "tarifhor_voiture": 4.0, "tarifhor_2r": 2.0, "lon": 2.2918279993563759, "lat": 48.873123999667513, "value": 37 }, "geometry": { "type": "Point", "coordinates": [ 255125.125874118646607, 6253360.547563348896801 ] } },
{ "type": "Feature", "properties": { "numhoro": "17760301", "adresse": "21 RUE CHAPTAL", "arrondt": 9, "regime": "MIXTE", "acces_pmr": "Oui", "tarif": "1 10U 75 MIX sept22", "zoneres": "9E", "paiement": "CB + CB sans contact", "geo_point_2d": { "lon": 2.332571000237547, "lat": 48.880930000445062 }, "tarifhor_voiture": 6.0, "tarifhor_2r": 3.0, "lon": 2.332571000237547, "lat": 48.880930000445062, "value": 14 }, "geometry": { "type": "Point", "coordinates": [ 259660.615985600539716, 6254681.803420112468302 ] } },
{ "type": "Feature", "properties": { "numhoro": "45710404", "adresse": "22 RUE HENRY MONNIER", "arrondt": 9, "regime": "MIXTE", "acces_pmr": "Non", "tarif": "1 10U 75 MIX sept22", "zoneres": "9F", "paiement": "CB + Paris Carte", "geo_point_2d": { "lon": 2.337559000398886, "lat": 48.880377000363467 }, "tarifhor_voiture": 6.0, "tarifhor_2r": 3.0, "lon": 2.337559000398886, "lat": 48.880377000363467, "value": 99 }, "geometry": { "type": "Point", "coordinates": [ 260215.877623637556098, 6254588.194978229701519 ] } },
{ "type": "Feature", "properties": { "numhoro": "17440101", "adresse": "5 RUE CHANGARNIER", "arrondt": 12, "regime": "MIXTE", "acces_pmr": "Non", "tarif": "2 10U 50 MIX sept22", "zoneres": "12R", "paiement": "CB + Paris Carte", "geo_point_2d": { "lon": 2.4119389994682292, "lat": 48.845364999969618 }, "tarifhor_voiture": 4.0, "tarifhor_2r": 2.0, "lon": 2.4119389994682292, "lat": 48.845364999969618, "value": 97 }, "geometry": { "type": "Point", "coordinates": [ 268495.821245240978897, 6248663.685313312336802 ] } },
{ "type": "Feature", "properties": { "numhoro": "14090101", "adresse": "5 RUE DE CADIX", "arrondt": 15, "regime": "MIXTE", "acces_pmr": "Oui", "tarif": "2 10U 50 MIX sept22", "zoneres": "15X", "paiement": "CB + CB sans contact", "geo_point_2d": { "lon": 2.2887099999871281, "lat": 48.834427000354083 }, "tarifhor_voiture": 4.0, "tarifhor_2r": 2.0, "lon": 2.2887099999871281, "lat": 48.834427000354083, "value": 34 }, "geometry": { "type": "Point", "coordinates": [ 254778.031772040296346, 6246813.675287892110646 ] } },
{ "type": "Feature", "properties": { "numhoro": "31770101", "adresse": "5 RUE DE L EGLISE", "arrondt": 15, "regime": "MIXTE", "acces_pmr": "Oui", "tarif": "2 10U 50 MIX sept22", "zoneres": "15M", "paiement": "CB + CB sans contact", "geo_point_2d": { "lon": 2.2853030002939718, "lat": 48.845319999909428 }, "tarifhor_voiture": 4.0, "tarifhor_2r": 2.0, "lon": 2.2853030002939718, "lat": 48.845319999909428, "value": 23 }, "geometry": { "type": "Point", "coordinates": [ 254398.766301065275911, 6248656.07335327938199 ] } },
{ "type": "Feature", "properties": { "numhoro": "89290101", "adresse": "5 RUE DU SERGENT HOFF", "arrondt": 17, "regime": "MIXTE", "acces_pmr": "Oui", "tarif": "2 10U 50 MIX sept22", "zoneres": "17H", "paiement": "CB + CB sans contact", "geo_point_2d": { "lon": 2.2939250003217868, "lat": 48.881607000006618 }, "tarifhor_voiture": 4.0, "tarifhor_2r": 2.0, "lon": 2.2939250003217868, "lat": 48.881607000006618, "value": 92 }, "geometry": { "type": "Point", "coordinates": [ 255358.562953781220131, 6254796.403138029389083 ] } },
{ "type": "Feature", "properties": { "numhoro": "89860101", "adresse": "5 RUE DU SIMPLON", "arrondt": 18, "regime": "MIXTE", "acces_pmr": "Oui", "tarif": "2 10U 50 MIX sept22", "zoneres": "18M", "paiement": "CB + CB sans contact", "geo_point_2d": { "lon": 2.3517429994514476, "lat": 48.893383000026901 }, "tarifhor_voiture": 4.0, "tarifhor_2r": 2.0, "lon": 2.3517429994514476, "lat": 48.893383000026901, "value": 77 }, "geometry": { "type": "Point", "coordinates": [ 261794.833175581006799, 6256790.044492826797068 ] } },
{ "type": "Feature", "properties": { "numhoro": "36230101", "adresse": "5 RUE FERRUS", "arrondt": 14, "regime": "MIXTE", "acces_pmr": "Oui", "tarif": "2 10U 50 MIX sept22", "zoneres": "14H", "paiement": "CB + CB sans contact", "geo_point_2d": { "lon": 2.340811999453162, "lat": 48.831281000299306 }, "tarifhor_voiture": 4.0, "tarifhor_2r": 2.0, "lon": 2.340811999453162, "lat": 48.831281000299306, "value": 8 }, "geometry": { "type": "Point", "coordinates": [ 260577.999821910547325, 6246281.648069737479091 ] } },
{ "type": "Feature", "properties": { "numhoro": "52910303", "adresse": "35 RUE LAMARTINE", "arrondt": 9, "regime": "ROTATIF", "acces_pmr": "Non", "tarif": "1 10U 75 ROT sept22", "zoneres": null, "paiement": "CB + Paris Carte", "geo_point_2d": { "lon": 2.340394999840067, "lat": 48.876554000105159 }, "tarifhor_voiture": 6.0, "tarifhor_2r": 3.0, "lon": 2.340394999840067, "lat": 48.876554000105159, "value": 63 }, "geometry": { "type": "Point", "coordinates": [ 260531.579637319839094, 6253941.089389022439718 ] } },
{ "type": "Feature", "properties": { "numhoro": "52110402", "adresse": "48 RUE LA BRUYERE", "arrondt": 9, "regime": "MIXTE", "acces_pmr": "Non", "tarif": "1 10U 75 MIX sept22", "zoneres": "9E", "paiement": "CB + Paris Carte", "geo_point_2d": { "lon": 2.331987999812589, "lat": 48.879964999604177 }, "tarifhor_voiture": 6.0, "tarifhor_2r": 3.0, "lon": 2.331987999812589, "lat": 48.879964999604177, "value": 6 },